,"School Name","Full Address","Street Address",City,State,"Zip Code",Country,"School Type",Website,Description,Latitude,Longitude,"Accuracy Score","Accuracy Type",Number,Street,"Unit Type","Unit Number",City,State,County,Zip,Country,Source
0,"Bethany Christian Academy","1765 Highland Ave, Montgomery, AL, 36107-2657, USA","1765 Highland Ave",Montgomery,AL,36107-2657,USA,PK-08,https://www.adventisteducation.org/schools/ANTP25,"Bethany Christian Academy is a Christ-centered private school, where students receive a wholistic education which prepares them for college and life.",32.37256,-86.284475,1,rooftop,1765,"Highland Ave",,,Montgomery,AL,"Montgomery County",36107,US,"City of Montgomery"
1,"Bethany SDA Child Development Center","714 Cedar St, Montgomery, AL, 36106-1002, USA","714 Cedar St",Montgomery,AL,36106-1002,USA,ECP,https://www.adventisteducation.org/schools/ANTP27,[],32.371569,-86.289672,1,rooftop,714,"Cedar St",,,Montgomery,AL,"Montgomery County",36106,US,"City of Montgomery"
2,"Big Cove Christian Academy","6354 Highway 431 S, Owens Cross Roads, AL, 35763-9210, USA","6354 Highway 431 S","Owens Cross Roads",AL,35763-9210,USA,PK-08,https://www.adventisteducation.org/schools/ANTG16,[],34.667724,-86.488204,1,range_interpolation,6354,US-431,,,"Owens Cross Roads",AL,"Madison County",35763,US,"TIGER/Line® dataset from the US Census Bureau"
3,"Ephesus Academy Child Development Center","829 McMillon Ave SW, Birmingham, AL, 35211-1730, USA","829 McMillon Ave SW",Birmingham,AL,35211-1730,USA,ECP,https://www.adventisteducation.org/schools/ANTP2A,[],33.494778,-86.844501,1,rooftop,829,"McMillon Ave SW",,,Birmingham,AL,"Jefferson County",35211,US,Jefferson
4,"Ephesus Junior Academy","829 McMillon Ave SW, Birmingham, AL, 35211-1730, USA","829 McMillon Ave SW",Birmingham,AL,35211-1730,USA,PK-10,https://www.adventisteducation.org/schools/ANTP45,[],33.494778,-86.844501,1,rooftop,829,"McMillon Ave SW",,,Birmingham,AL,"Jefferson County",35211,US,Jefferson
5,"Floral Crest School","1228 County Road 89, Bryant, AL, 35958-5332, USA","1228 County Road 89",Bryant,AL,35958-5332,USA,PK-08,https://www.adventisteducation.org/schools/ANTG36,[],34.876547,-85.588078,1,rooftop,1228,"County Rd 89",,,Bryant,AL,"Jackson County",35958,US,Jackson
6,"Hoover Christian School","2113 Old Rocky Ridge Rd, Hoover, AL, 35216-6101, USA","2113 Old Rocky Ridge Rd",Hoover,AL,35216-6101,USA,PK-10,https://www.adventisteducation.org/schools/ANTG20,"Hoover Christian School, a Seventh-day Adventist Christian school, is dedicated to nurturing a personal relationship with Jesus,  teaching students to be Bible ""Daniels"" in a secular world, developing academic excellence, and promoting service to others.",33.387748,-86.794638,1,rooftop,2113,"Old Rocky Ridge Rd",,,"Vestavia Hills",AL,"Jefferson County",35216,US,Jefferson
7,"Mobile Junior Academy","1900 Cody Rd S, Mobile, AL, 36695-3007, USA","1900 Cody Rd S",Mobile,AL,36695-3007,USA,PK-08,https://www.adventisteducation.org/schools/ANTG52,[],30.651183,-88.20852,1,rooftop,1900,"Cody Rd S",,,Mobile,AL,"Mobile County",36695,US,"City of Mobile"
8,"New Life Early Learning Center","3912 Pulaski Pike NW # B, Huntsville, AL, 35810-2659, USA","3912 Pulaski Pike NW # B",Huntsville,AL,35810-2659,USA,ECP,https://www.adventisteducation.org/schools/ANTP2F,[],34.777152,-86.616459,1,range_interpolation,3912,"Pulaski Pike NW",#,B,Huntsville,AL,"Madison County",35810,US,"TIGER/Line® dataset from the US Census Bureau"
9,"Oakwood Adventist Academy","7000 Adventist Blvd, Huntsville, AL, 35896-0001, USA","7000 Adventist Blvd",Huntsville,AL,35896-0001,USA,PK-12,https://www.adventisteducation.org/schools/ANTP31,"Oakwood Adventist Academy is a Seventh-day Adventist co-educational K-12 day school located on the historic campus of Oakwood University in Huntsville, AL.",34.751997,-86.648196,0.9,range_interpolation,7000,"Adventist Blvd NW",,,Huntsville,AL,"Madison County",35896,US,"TIGER/Line® dataset from the US Census Bureau"
10,"Oakwood University","7000 Adventist Blvd NW, Huntsville, AL, 35896-0001, USA","7000 Adventist Blvd NW",Huntsville,AL,35896-0001,USA,University,https://www.adventisteducation.org/schools/AN11OA,[],34.751997,-86.648196,1,range_interpolation,7000,"Adventist Blvd NW",,,Huntsville,AL,"Madison County",35896,US,"TIGER/Line® dataset from the US Census Bureau"
11,"Oakwood University Child Development Lab","7000 Adventist Blvd, Huntsville, AL, 35896-0001, USA","7000 Adventist Blvd",Huntsville,AL,35896-0001,USA,ECP,https://www.adventisteducation.org/schools/ANTP2G,[],34.751997,-86.648196,0.9,range_interpolation,7000,"Adventist Blvd NW",,,Huntsville,AL,"Madison County",35896,US,"TIGER/Line® dataset from the US Census Bureau"
12,"Amazing Grace Academy","2238 S Inner Springer Loop, Palmer, AK, 99645, USA","2238 S Inner Springer Loop",Palmer,AK,99645,USA,PK-12,https://www.adventisteducation.org/schools/ANI465,"Amazing Grace Academy is a Seventh-day Adventist school committed to nurturing students to develop personal relationships with God, academic excellence, and strong relationships through service.",61.571161,-149.146783,1,rooftop,2238,"S S Inner Springer Loop Loop",,,Palmer,AK,"Matanuska-Susitna Borough",99645,US,"Matanuska-Susitna Borough"
13,"Anchorage Junior Academy","5511 Omalley Rd, Anchorage, AK, 99507-6856, USA","5511 Omalley Rd",Anchorage,AK,99507-6856,USA,PK-08,https://www.adventisteducation.org/schools/ANI415,"AJA exists to introduce each student to Jesus Christ. Our desire is to develop this relationship so that each student will love their Creator and choose to spend eternity with Him.",61.123314,-149.779833,1,rooftop,5511,"O'malley Rd",,,Anchorage,AK,"Anchorage Municipality",99507,US,"Municipality of Anchorage"
14,"Dillingham Adventist School","446 Windmill Hill Rd, Dillingham, AK, 99576, USA","446 Windmill Hill Rd",Dillingham,AK,99576,USA,PK-08,https://www.adventisteducation.org/schools/ANI435,[],59.043279,-158.491439,1,rooftop,446,"Windmill Hill Rd",,,Dillingham,AK,"Dillingham Census Area",99576,US,"City of Dillingham"
15,"Golden Heart Christian School","1809 Farmers Loop Rd, Fairbanks, AK, 99709-6553, USA","1809 Farmers Loop Rd",Fairbanks,AK,99709-6553,USA,PK-08,https://www.adventisteducation.org/schools/ANI440,[],64.874085,-147.822033,1,rooftop,1809,"Farmers Loop Rd",,,Fairbanks,AK,"Fairbanks North Star Borough",99709,US,"Fairbanks North Star Borough"
16,"Juneau Adventist Christian School","4890 Glacier Hwy, Juneau, AK, 99801-9512, USA","4890 Glacier Hwy",Juneau,AK,99801-9512,USA,PK-08,https://www.adventisteducation.org/schools/ANI445,[],58.347495,-134.491868,1,rooftop,4890,"Glacier Hwy",,,Juneau,AK,"Juneau City And Borough",99801,US,"City of Juneau"
17,"Sitka Adventist School","1613 Halibut Point Rd, Sitka, AK, 99835-7010, USA","1613 Halibut Point Rd",Sitka,AK,99835-7010,USA,PK-08,https://www.adventisteducation.org/schools/ANI480,[],57.065141,-135.363548,1,rooftop,1613,"Halibut Point Rd",,,Sitka,AK,"Sitka City And Borough",99835,US,Sitka
18,"Adobe Adventist Christian School","9910 E Adobe Rd, Mesa, AZ, 85207-5319, USA","9910 E Adobe Rd",Mesa,AZ,85207-5319,USA,K-08,https://www.adventisteducation.org/schools/ANP430,"Adobe Adventist Christian School is dedicated to providing families with a Christ centered education based on a Biblical foundation.",33.430012,-111.617015,1,rooftop,9910,"E Adobe Rd",,,Mesa,AZ,"Maricopa County",85207,US,Maricopa
19,"Cochise SDA Christian School","1462 S Naco Hwy, Bisbee, AZ, 85603, USA","1462 S Naco Hwy",Bisbee,AZ,85603,USA,K-08,https://www.adventisteducation.org/schools/ANP4BI,[],31.392561,-109.919552,1,rooftop,1462,"S Naco Hwy",,,Bisbee,AZ,"Cochise County",85603,US,Cochise
20,"Glenview Adventist  Academy","6801 N 43rd Ave, Phoenix, AZ, 85019-1008, USA","6801 N 43rd Ave",Phoenix,AZ,85019-1008,USA,K-08,https://www.adventisteducation.org/schools/ANP440,[],33.536804,-112.15113,1,rooftop,6801,"N 43rd Ave",,,Phoenix,AZ,"Maricopa County",85019,US,Maricopa
21,"Holbrook SDA Indian School","2001 McLaws Rd, Holbrook, AZ, 86025-3223, USA","2001 McLaws Rd",Holbrook,AZ,86025-3223,USA,PK-12,https://www.adventisteducation.org/schools/ANP145,"Holbrook Indian School provides a safe place for Native American students to learn and grow in the Creator while preserving and celebrating their Native culture.",34.883095,-110.192321,1,rooftop,2001,"McLaws Rd",,,Holbrook,AZ,"Navajo County",86025,US,"Statewide AZ"
22,"Maricopa Village Christian School","8001 W Baseline Rd, Laveen, AZ, 85339-9311, USA","8001 W Baseline Rd",Laveen,AZ,85339-9311,USA,PK-08,https://www.adventisteducation.org/schools/ANP4MB,[],33.377168,-112.228741,1,range_interpolation,8001,"W Baseline Rd",,,Laveen,AZ,"Maricopa County",85339,US,"TIGER/Line® dataset from the US Census Bureau"
23,"Prescott Adventist Christian School","2980 Willow Creek Rd, Prescott, AZ, 86301-4179, USA","2980 Willow Creek Rd",Prescott,AZ,86301-4179,USA,K-08,https://www.adventisteducation.org/schools/ANP460,"We are a Seventh-day Adventist school located in Prescott, Arizona. Our staff is committed to providing quality education in a Christ-filled environment.",34.593042,-112.470692,1,rooftop,2980,"Willow Creek Rd",,,Prescott,AZ,"Yavapai County",86301,US,"Statewide AZ"
24,"Saguaro Hills Adventist Christian School","4280 W Irvington Rd, Tucson, AZ, 85746-9529, USA","4280 W Irvington Rd",Tucson,AZ,85746-9529,USA,K-08,https://www.adventisteducation.org/schools/ANP4SS,"Saguaro Hills is a safe SDA Christian K-8 school. We are a small 3 room school on 23 acres of desert landscape.",32.16349,-111.056144,1,rooftop,4280,"W Irvington Rd",,,Tucson,AZ,"Pima County",85746,US,Pima
25,"Thunderbird Adventist Academy","7410 E Sutton Dr, Scottsdale, AZ, 85260-3915, USA","7410 E Sutton Dr",Scottsdale,AZ,85260-3915,USA,9-12,https://www.adventisteducation.org/schools/ANP43Q,"Our mission is for each of our students to EXCEL: to EXperience Jesus, to Communicate clearly and think critically, to Embrace service and citizenship, and to Live healthfully in body and mind.",33.608431,-111.920906,1,rooftop,7410,"E Sutton Dr",,,Scottsdale,AZ,"Maricopa County",85260,US,"City of Scottsdale"
26,"Thunderbird Christian Elementary","7440 E Sutton Dr, Scottsdale, AZ, 85260-3915, USA","7440 E Sutton Dr",Scottsdale,AZ,85260-3915,USA,K-08,https://www.adventisteducation.org/schools/ANP415,"We are an Adventist educational institution that is committed to excellence in all we do. We encourage our students to be motivated thinkers and lifelong learners. It is vital that we meet the students where they are and encourage hem to teach their potential. We strive to provide a well-rounded education including hands on experimental learning through STEM activities and enrichment programs. We strive to show our students how to be like Christ by using their knowledge and talents to serve others.",33.608856,-111.919189,1,rooftop,7440,"E Sutton Dr",,,Scottsdale,AZ,"Maricopa County",85260,US,"City of Scottsdale"
27,"Verde Valley Adventist School","51 W Mingus Ave, Cottonwood, AZ, 86326, USA","51 W Mingus Ave",Cottonwood,AZ,86326,USA,K-08,https://www.adventisteducation.org/schools/ANP490,[],34.738946,-112.028624,1,rooftop,51,"W Mingus Ave",,,Cottonwood,AZ,"Yavapai County",86326,US,Yavapai
28,"Yuma Adventist Christian School","1681 S 6th Ave, Yuma, AZ, 85364-5557, USA","1681 S 6th Ave",Yuma,AZ,85364-5557,USA,K-08,https://www.adventisteducation.org/schools/ANP495,[],32.697094,-114.626542,1,rooftop,1681,"S 6th Ave",,,Yuma,AZ,"Yuma County",85364,US,Yuma
29,"Bentonville SDA Preschool","2522 SE 14th St, Bentonville, AR, 72712-6960, USA","2522 SE 14th St",Bentonville,AR,72712-6960,USA,ECP,https://www.adventisteducation.org/schools/ANW42A,[],36.355049,-94.182245,1,rooftop,2522,"SE 14th St",,,Bentonville,AR,"Benton County",72712,US,"Arkansas Geographic Information Office"
30,"Bentonville SDA School","2522 SE 14th St, Bentonville, AR, 72712-6960, USA","2522 SE 14th St",Bentonville,AR,72712-6960,USA,PK-08,https://www.adventisteducation.org/schools/ANW413,"The Bentonville Seventh-day Adventist School is dedicated to the preparation of young people for unselfish service to God, their community and humanity.",36.355049,-94.182245,1,rooftop,2522,"SE 14th St",,,Bentonville,AR,"Benton County",72712,US,"Arkansas Geographic Information Office"
31,"Ewing Adventist Junior Academy","709 Adventist Church Rd, Bonnerdale, AR, 71933-6736, USA","709 Adventist Church Rd",Bonnerdale,AR,71933-6736,USA,PK-10,https://www.adventisteducation.org/schools/ANW416,"Ewing Adventist Junior Academy exists to show children Jesus, nurture their love for Him and others, teach them to think, equip them with academic excellence and empower them to serve.",34.362814,-93.396872,1,rooftop,709,"Adventist Church Rd",,,Bonnerdale,AR,"Hot Spring County",71933,US,"Arkansas Geographic Information Office"
32,"Harrison SDA School","4877 Highway 392 W, Harrison, AR, 72601-9698, USA","4877 Highway 392 W",Harrison,AR,72601-9698,USA,PK-08,https://www.adventisteducation.org/schools/ANW432,"The Harrison Seventh Day Adventist School recognizes God as the ultimate source of existence and truth. We encourage each student to reach their maximum best academically and personally.",36.235062,-93.186671,1,rooftop,4877,"Highway 392 W",,,Harrison,AR,"Boone County",72601,US,"Arkansas Geographic Information Office"
33,"Hot Springs Adventist School","401 Weston Rd, Hot Springs, AR, 71913-5356, USA","401 Weston Rd","Hot Springs",AR,71913-5356,USA,PK-08,https://www.adventisteducation.org/schools/ANW436,"Located on a scenic hilltop in beautiful Hot Springs, Arkansas, Hot Springs Adventist School offers Christian education for Kindergarten through 8th grade.",34.484432,-93.113419,1,rooftop,401,"Weston Rd",,,"Hot Springs National Park",AR,"Garland County",71913,US,Garland
34,"Little Rock Adventist Academy","8708 N Rodney Parham Rd, Little Rock, AR, 72205-1601, USA","8708 N Rodney Parham Rd","Little Rock",AR,72205-1601,USA,PK-10,https://www.adventisteducation.org/schools/ANW456,"The Little Rock Adventist Academy family exists to show children Jesus, nurture their love for Him and others, teach them to think, and empower them to serve.",34.757672,-92.371444,1,rooftop,8708,"N Rodney Parham Rd",,,"Little Rock",AR,"Pulaski County",72205,US,Pulaski
35,"Little Rock Adventist Preschool","8708 N Rodney Parham Rd, Little Rock, AR, 72205-1601, USA","8708 N Rodney Parham Rd","Little Rock",AR,72205-1601,USA,ECP,https://www.adventisteducation.org/schools/ANW42B,[],34.757672,-92.371444,1,rooftop,8708,"N Rodney Parham Rd",,,"Little Rock",AR,"Pulaski County",72205,US,Pulaski
36,"Ozark Adventist Academy","20997 Dawn Hill East Rd, Gentry, AR, 72734-8870, USA","20997 Dawn Hill East Rd",Gentry,AR,72734-8870,USA,9-12,https://www.adventisteducation.org/schools/ANW42Q,"Ozark Adventist Academy is a Christian co-educational college preparatory boarding school dedicated to educational excellence in a Christ-centered environment.",36.237494,-94.499217,1,rooftop,20997,"Dawn Hill East Rd",,,Gentry,AR,"Benton County",72734,US,"Arkansas Geographic Information Office"
37,"Ozark Adventist Preschool","21150 Dawn Hill East Rd, Gentry, AR, 72734-8895, USA","21150 Dawn Hill East Rd",Gentry,AR,72734-8895,USA,ECP,https://www.adventisteducation.org/schools/ANW42C,[],36.237162,-94.502729,1,rooftop,21150,"Dawn Hill East Rd",,,Gentry,AR,"Benton County",72734,US,"Arkansas Geographic Information Office"
38,"Ozark Adventist School","21150 Dawn Hill East Rd, Gentry, AR, 72734-8895, USA","21150 Dawn Hill East Rd",Gentry,AR,72734-8895,USA,PK-08,https://www.adventisteducation.org/schools/ANW468,"Ozark Adventist School, a Seventh-day Adventist Christian school, strives for each student to grow in a relationship with God, pursue academic excellence, and serve others.",36.237162,-94.502729,1,rooftop,21150,"Dawn Hill East Rd",,,Gentry,AR,"Benton County",72734,US,"Arkansas Geographic Information Office"
39,"Shiloh Excel Christian School","2420 S Maple St, Little Rock, AR, 72204-5420, USA","2420 S Maple St","Little Rock",AR,72204-5420,USA,PK-08,https://www.adventisteducation.org/schools/ANWB60,[],34.729339,-92.31528,1,range_interpolation,2420,"S Maple St",,,"Little Rock",AR,"Pulaski County",72204,US,"TIGER/Line® dataset from the US Census Bureau"
40,"A+ Adventist Children's Center","234 N Isabel St, Glendale, CA, 91206-4317, USA","234 N Isabel St",Glendale,CA,91206-4317,USA,ECP,https://www.adventisteducation.org/schools/ANPP13,[],34.148769,-118.248702,1,range_interpolation,234,"N Isabel St",,,Glendale,CA,"Los Angeles County",91206,US,"TIGER/Line® dataset from the US Census Bureau"
41,"ACES of Red Bluff","720 S Jackson St, Red Bluff, CA, 96080-4247, USA","720 S Jackson St","Red Bluff",CA,96080-4247,USA,K-08,https://www.adventisteducation.org/schools/ANPIA9,"Adventist Christian elementary Schools purpose is to help our children to know Jesus and develop academically to reach Gods highest potential for them.",40.163543,-122.238012,1,range_interpolation,720,"S Jackson St",,,"Red Bluff",CA,"Tehama County",96080,US,"TIGER/Line® dataset from the US Census Bureau"
42,"ACS of Yuba City","369 Harding Rd, Yuba City, CA, 95993-5114, USA","369 Harding Rd","Yuba City",CA,95993-5114,USA,K-08,https://www.adventisteducation.org/schools/ANPIF9,[],39.122132,-121.653635,1,rooftop,369,"Harding Rd",,,"Yuba City",CA,"Sutter County",95993,US,Sutter
43,"Adventist Edu. Simi Valley Preschool","1636 Sinaloa Rd, Simi Valley, CA, 93065-3034, USA","1636 Sinaloa Rd","Simi Valley",CA,93065-3034,USA,ECP,https://www.adventisteducation.org/schools/ANPP2I,[],34.268142,-118.785595,1,rooftop,1636,"Sinaloa Rd",,,"Simi Valley",CA,"Ventura County",93065,US,"Ventura County"
44,"Adventist Education Simi Valley","1636 Sinaloa Rd, Simi Valley, CA, 93065-3034, USA","1636 Sinaloa Rd","Simi Valley",CA,93065-3034,USA,K-08,https://www.adventisteducation.org/schools/ANPP84,[],34.268142,-118.785595,1,rooftop,1636,"Sinaloa Rd",,,"Simi Valley",CA,"Ventura County",93065,US,"Ventura County"
45,"Adventist Union School","15548 Santa Ana Ave, Bellflower, CA, 90706-3547, USA","15548 Santa Ana Ave",Bellflower,CA,90706-3547,USA,K-08,https://www.adventisteducation.org/schools/ANPP20,[],33.891708,-118.135375,1,rooftop,15548,"Santa Ana Ave",,,Bellflower,CA,"Los Angeles County",90706,US,"Indemnification Los Angeles County"
46,"Antelope Valley Adventist School","45002 Fern Ave, Lancaster, CA, 93534-2486, USA","45002 Fern Ave",Lancaster,CA,93534-2486,USA,K-08,https://www.adventisteducation.org/schools/ANPP24,"Antelope Valley Adventist School prepares students for a life of purpose and service by teaching critical thinking and nurturing a genuine love for Christ and others.",34.69997,-118.144376,1,rooftop,45002,"Fern Ave",,,Lancaster,CA,"Los Angeles County",93534,US,"Indemnification Los Angeles County"
47,"Armona Union Academy","14435 Locust St, Armona, CA, 93202, USA","14435 Locust St",Armona,CA,93202,USA,K-12,https://www.adventisteducation.org/schools/ANP816,"A TK-12 Seventh-day Adventist Christian school serving Kings and Tulare Counties since 1904",36.31693,-119.716688,1,rooftop,14435,"Locust St",,,Armona,CA,"Kings County",93202,US,"Kings County"
48,"Azure Hills Children's Center","22577 City Center Ct, Grand Terrace, CA, 92313-5563, USA","22577 City Center Ct","Grand Terrace",CA,92313-5563,USA,ECP,https://www.adventisteducation.org/schools/ANPMC2,[],34.032399,-117.313127,1,range_interpolation,22577,"City Center Ct",,,"Grand Terrace",CA,"San Bernardino County",92313,US,"TIGER/Line® dataset from the US Census Bureau"
49,"Bakersfield Adventist Academy","3333 Bernard St, Bakersfield, CA, 93306-3005, USA","3333 Bernard St",Bakersfield,CA,93306-3005,USA,K-12,https://www.adventisteducation.org/schools/ANP81B,[],35.391847,-118.957092,1,rooftop,3333,"Bernard St",,,Bakersfield,CA,"Kern County",93306,US,"City of Bakersfield"
50,"Bayside SDA Christian School","26400 Gading Rd, Hayward, CA, 94544-3617, USA","26400 Gading Rd",Hayward,CA,94544-3617,USA,PK-08,https://www.adventisteducation.org/schools/ANPI15,[],37.64306,-122.080842,1,rooftop,26400,"Gading Rd",,,Hayward,CA,"Alameda County",94544,US,"Alameda County"
51,"Bishop Adventist Christian School","730 Home St, Bishop, CA, 93514-2316, USA","730 Home St",Bishop,CA,93514-2316,USA,K-08,https://www.adventisteducation.org/schools/ANPF15,[],37.367485,-118.402055,1,rooftop,730,"Home St",,,Bishop,CA,"Inyo County",93514,US,"City of Bishop"
52,"Bishop Rainbow Connection","730 Home St, Bishop, CA, 93514-2316, USA","730 Home St",Bishop,CA,93514-2316,USA,ECP,https://www.adventisteducation.org/schools/ANPFBR,[],37.367485,-118.402055,1,rooftop,730,"Home St",,,Bishop,CA,"Inyo County",93514,US,"City of Bishop"
53,"Calexico Mission School","601 E 1st St, Calexico, CA, 92231-3022, USA","601 E 1st St",Calexico,CA,92231-3022,USA,K-12,https://www.adventisteducation.org/schools/ANPM18,"Calexico Mission School is a K-12th grade, Seventh-day Adventist academy with a 85-year tradition of providing academic excellence and service in a caring, Christian environment.",32.665746,-115.490721,1,range_interpolation,601,"E 1st St",,,Calexico,CA,"Imperial County",92231,US,"TIGER/Line® dataset from the US Census Bureau"
54,"Central Valley Christian Academy","2020 Academy Pl, Ceres, CA, 95307-1516, USA","2020 Academy Pl",Ceres,CA,95307-1516,USA,K-12,https://www.adventisteducation.org/schools/ANP82L,"Central Valley Christian Academy is a private Christian school located in Ceres, California.",37.606703,-120.957686,1,rooftop,2020,"Academy Pl",,,Ceres,CA,"Stanislaus County",95307,US,"Indemnification Stanislaus County"
55,"Chico Oaks Adventist School","1859 Hooker Oak Ave, Chico, CA, 95926-1738, USA","1859 Hooker Oak Ave",Chico,CA,95926-1738,USA,K-08,https://www.adventisteducation.org/schools/ANPI18,[],39.7545,-121.805022,1,rooftop,1859,"Hooker Oak Ave",,,Chico,CA,"Butte County",95926,US,"Butte County"
56,"Chowchilla Adventist School","22310 Road 13, Chowchilla, CA, 93610-8802, USA","22310 Road 13",Chowchilla,CA,93610-8802,USA,K-08,https://www.adventisteducation.org/schools/ANP818,"Chowchilla Adventist School, a Seventh-day Adventist Christian school, can give your student a Christian private school advantage. Students receive a quality, values-based education, safe and secure environment, committed staff, and low student/teacher ratio. Come grow with us!",37.073026,-120.311261,1,rooftop,22310,"Rd 13",,,Chowchilla,CA,"Madera County",93610,US,"Madera County"
57,"Clearlake SDA Christian School","15150 Davis Ave, Clearlake, CA, 95422-9078, USA","15150 Davis Ave",Clearlake,CA,95422-9078,USA,K-08,https://www.adventisteducation.org/schools/ANPI21,[],38.95494,-122.628542,1,rooftop,15150,"Davis Ave",,,Clearlake,CA,"Lake County",95422,US,"Lake County"
58,"Conejo Adventist Elementary School","1250 Academy Dr, Newbury Park, CA, 91320-1135, USA","1250 Academy Dr","Newbury Park",CA,91320-1135,USA,K-08,https://www.adventisteducation.org/schools/ANPP28,"Conejo Adventist Elementary School serves as a private, co-educational, Christian school located in Newbury Park, California for students enrolled in Kindergarten through 8th grade.",34.19262,-118.935381,1,range_interpolation,1250,"Academy Dr",,,"Newbury Park",CA,"Ventura County",91320,US,"TIGER/Line® dataset from the US Census Bureau"
59,"Conejo Adventist Preschool","1250 Academy Dr, Newbury Park, CA, 91320-1135, USA","1250 Academy Dr","Newbury Park",CA,91320-1135,USA,ECP,https://www.adventisteducation.org/schools/ANPP2E,[],34.19262,-118.935381,1,range_interpolation,1250,"Academy Dr",,,"Newbury Park",CA,"Ventura County",91320,US,"TIGER/Line® dataset from the US Census Bureau"
60,"Crescent City SDA School","1770 Northcrest Dr, Crescent City, CA, 95531-8921, USA","1770 Northcrest Dr","Crescent City",CA,95531-8921,USA,K-08,https://www.adventisteducation.org/schools/ANPI30,[],41.777751,-124.20034,1,rooftop,1770,"Northcrest Dr",,,"Crescent City",CA,"Del Norte County",95531,US,"Del Norte"
61,"CVCA Helping Hands Preschool","2020 Academy Pl, Ceres, CA, 95307-1516, USA","2020 Academy Pl",Ceres,CA,95307-1516,USA,ECP,https://www.adventisteducation.org/schools/ANP8HH,[],37.606703,-120.957686,1,rooftop,2020,"Academy Pl",,,Ceres,CA,"Stanislaus County",95307,US,"Indemnification Stanislaus County"
62,"Desert Adventist School","74200 Country Club Dr Ste 2, Palm Desert, CA, 92260-1688, USA","74200 Country Club Dr Ste 2","Palm Desert",CA,92260-1688,USA,K-08,https://www.adventisteducation.org/schools/ANPM72,[],33.758616,-116.370979,1,rooftop,74200,"Country Club Dr",Ste,2,"Palm Desert",CA,"Riverside County",92260,US,Riverside
63,"Dinuba Junior Academy","218 S Crawford Ave, Dinuba, CA, 93618-2507, USA","218 S Crawford Ave",Dinuba,CA,93618-2507,USA,K-08,https://www.adventisteducation.org/schools/ANP821,"Dinuba Jr Academy offers a Christ-centered environment in which your child can grow and succeed.",36.5445,-119.376543,1,rooftop,218,"S Crawford Ave",,,Dinuba,CA,"Tulare County",93618,US,Tulare
64,"Discoveryland Child Care Center","4400 Del Amo Blvd, Torrance, CA, 90503-2121, USA","4400 Del Amo Blvd",Torrance,CA,90503-2121,USA,ECP,https://www.adventisteducation.org/schools/ANPP2D,[],33.848191,-118.359727,1,rooftop,4400,"Del Amo Blvd",,,Torrance,CA,"Los Angeles County",90503,US,"Indemnification Los Angeles County"
65,"East Valley Adventist School","3554 Maine Ave, Baldwin Park, CA, 91706-5153, USA","3554 Maine Ave","Baldwin Park",CA,91706-5153,USA,K-08,https://www.adventisteducation.org/schools/ANPP40,[],34.076791,-117.968787,1,rooftop,3554,"Maine Ave",,,"Baldwin Park",CA,"Los Angeles County",91706,US,"Indemnification Los Angeles County"
66,"Echo Ridge Christian School","15504 Liberty Cir, Nevada City, CA, 95959-9636, USA","15504 Liberty Cir","Nevada City",CA,95959-9636,USA,K-08,https://www.adventisteducation.org/schools/ANPI34,"Imagine your child equipped for this world and prepared for the world to come We exist to cultivate servant-leaders, dedicated to God’s calling. They will make a difference.",39.24626,-121.054461,1,rooftop,15504,"Liberty Cir",,,"Nevada City",CA,"Nevada County",95959,US,"County of Nevada, California"
67,"El Cajon SDA School","1640 E Madison Ave, El Cajon, CA, 92019-1045, USA","1640 E Madison Ave","El Cajon",CA,92019-1045,USA,K-08,https://www.adventisteducation.org/schools/ANPM21,[],32.803229,-116.92089,1,rooftop,1640,"E Madison Ave",,,"El Cajon",CA,"San Diego County",92019,US,"San Diego Geographic Information Source - JPA"
68,"El Dorado Adventist School","1900 Broadway, Placerville, CA, 95667-6003, USA","1900 Broadway",Placerville,CA,95667-6003,USA,K-08,https://www.adventisteducation.org/schools/ANPI1E,[],38.728686,-120.759423,1,rooftop,1900,Broadway,,,Placerville,CA,"El Dorado County",95667,US,"El Dorando County"
69,"Escondido Adventist Academy","1301 Deodar Rd, Escondido, CA, 92026-2210, USA","1301 Deodar Rd",Escondido,CA,92026-2210,USA,K-12,https://www.adventisteducation.org/schools/ANPM1H,"The mission of Escondido Adventist Academy is to educate the head, the hand and the heart.",33.140243,-117.105813,1,rooftop,1301,"Deodar Rd",,,Escondido,CA,"San Diego County",92026,US,"San Diego Geographic Information Source - JPA"
70,"Feather River Adventist School","27 Cox Ln, Oroville, CA, 95965-9660, USA","27 Cox Ln",Oroville,CA,95965-9660,USA,K-08,https://www.adventisteducation.org/schools/ANPI42,[],39.383379,-121.610164,1,rooftop,27,"Cox Ln",,,Oroville,CA,"Butte County",95965,US,"Butte County"
71,"Foothill SDA Elementary","1991 Landess Ave, Milpitas, CA, 95035-7071, USA","1991 Landess Ave",Milpitas,CA,95035-7071,USA,K-08,https://www.adventisteducation.org/schools/ANP824,[],37.419424,-121.868508,1,rooftop,1991,"Landess Ave",,,Milpitas,CA,"Santa Clara County",95035,US,"Santa Clara County"
72,"Foothills Adventist Elementary School","711 Sunnyside Rd, Saint Helena, CA, 94574-9742, USA","711 Sunnyside Rd","Saint Helena",CA,94574-9742,USA,K-08,https://www.adventisteducation.org/schools/ANPI45,[],38.53767,-122.46823,1,rooftop,711,"Sunnyside Rd",,,"Saint Helena",CA,"Napa County",94574,US,"Napa County"
73,"Fortuna Junior Academy","1200 Ross Hill Rd, Fortuna, CA, 95540-3402, USA","1200 Ross Hill Rd",Fortuna,CA,95540-3402,USA,K-08,https://www.adventisteducation.org/schools/ANPI51,"Fortuna Junior Academy is dedicated to nurturing students in a desire to know God and contribute to their earthly community and the Kingdom of God.",40.575833,-124.144048,1,rooftop,1200,"Ross Hill Rd",,,Fortuna,CA,"Humboldt County",95540,US,"Humboldt County"
74,"Fresno Adventist Academy","5397 E Olive Ave, Fresno, CA, 93727-2522, USA","5397 E Olive Ave",Fresno,CA,93727-2522,USA,K-12,https://www.adventisteducation.org/schools/ANP81V,[],36.759549,-119.711404,1,rooftop,5397,"E Olive Ave",,,Fresno,CA,"Fresno County",93727,US,"Fresno County"
75,"Galt Adventist School","619 Myrtle Ave, Galt, CA, 95632-1725, USA","619 Myrtle Ave",Galt,CA,95632-1725,USA,K-08,https://www.adventisteducation.org/schools/ANPI54,[],38.257525,-121.303585,1,rooftop,619,"Myrtle Ave",,,Galt,CA,"Sacramento County",95632,US,"Sacramento County CC BY 4.0"
76,"Glendale Adventist Academy","700 Kimlin Dr, Glendale, CA, 91206-1641, USA","700 Kimlin Dr",Glendale,CA,91206-1641,USA,K-12,https://www.adventisteducation.org/schools/ANPP21,[],34.158027,-118.226764,1,rooftop,700,"Kimlin Dr",,,Glendale,CA,"Los Angeles County",91206,US,"Indemnification Los Angeles County"
77,"Hilltop Christian Preschool","2200 Country Hills Dr, Antioch, CA, 94509-7403, USA","2200 Country Hills Dr",Antioch,CA,94509-7403,USA,ECP,https://www.adventisteducation.org/schools/ANPIHC,[],37.968156,-121.781624,1,rooftop,2200,"Country Hills Dr",,,Antioch,CA,"Contra Costa County",94509,US,"Contra Costa County"
78,"Hilltop Christian School","2200 Country Hills Dr, Antioch, CA, 94509-7403, USA","2200 Country Hills Dr",Antioch,CA,94509-7403,USA,K-08,https://www.adventisteducation.org/schools/ANPI13,"Hilltop Christian School exists to show children Jesus, nurture their love for Him and other, teach them to think and empower them to serve.",37.968156,-121.781624,1,rooftop,2200,"Country Hills Dr",,,Antioch,CA,"Contra Costa County",94509,US,"Contra Costa County"
79,"Hollister SDA Christian School","400 Isabel Lane, Hollister, CA, 95023, USA","400 Isabel Lane",Hollister,CA,95023,USA,K-08,https://www.adventisteducation.org/schools/ANP833,[],36.867414,-121.376766,1,rooftop,400,"Isabel Ln",,,Hollister,CA,"San Benito County",95023,US,"San Benito"
80,"Iruka Yochien Preschool","2120 S Stimson Ave, Hacienda Heights, CA, 91745-4625, USA","2120 S Stimson Ave","Hacienda Heights",CA,91745-4625,USA,ECP,https://www.adventisteducation.org/schools/ANPP23,[],33.994328,-117.964047,1,rooftop,2120,"S Stimson Ave",,,"Hacienda Heights",CA,"Los Angeles County",91745,US,"Indemnification Los Angeles County"
81,"Kiddie Kollege Christian Preschool","95 N Forest Rd, Sonora, CA, 95370-4815, USA","95 N Forest Rd",Sonora,CA,95370-4815,USA,ECP,https://www.adventisteducation.org/schools/ANP8SK,[],37.984885,-120.391586,1,rooftop,95,"Forest Rd N",,,Sonora,CA,"Tuolumne County",95370,US,"Tuolumne County"
82,"Kingdom Kids Christian Preschool","5810 Pecan Ave, Orangevale, CA, 95662-4623, USA","5810 Pecan Ave",Orangevale,CA,95662-4623,USA,ECP,https://www.adventisteducation.org/schools/ANPIKK,[],38.671044,-121.219952,1,rooftop,5810,"Pecan Ave",,,Orangevale,CA,"Sacramento County",95662,US,"Sacramento County CC BY 4.0"
83,"La Sierra Academy","4900 Golden Ave, Riverside, CA, 92505-3225, USA","4900 Golden Ave",Riverside,CA,92505-3225,USA,K-12,https://www.adventisteducation.org/schools/ANPM2B,[],33.916976,-117.494314,1,rooftop,4900,"Golden Ave",,,Riverside,CA,"Riverside County",92505,US,"City of Riverside"
84,"La Sierra Academy Children's Center","4900 Golden Ave, Riverside, CA, 92505-3225, USA","4900 Golden Ave",Riverside,CA,92505-3225,USA,ECP,https://www.adventisteducation.org/schools/ANPM2A,[],33.916976,-117.494314,1,rooftop,4900,"Golden Ave",,,Riverside,CA,"Riverside County",92505,US,"City of Riverside"
85,"La Sierra University","4500 Riverwalk Pkwy, Riverside, CA, 92505-3344, USA","4500 Riverwalk Pkwy",Riverside,CA,92505-3344,USA,University,https://www.adventisteducation.org/schools/ANP12L,[],33.909846,-117.49524,1,rooftop,4500,"Riverwalk Pkwy",,,Riverside,CA,"Riverside County",92505,US,"City of Riverside"
86,"Laguna Niguel Junior Academy","29702 Kensington Dr, Laguna Niguel, CA, 92677-1658, USA","29702 Kensington Dr","Laguna Niguel",CA,92677-1658,USA,K-08,https://www.adventisteducation.org/schools/ANPM45,[],33.532065,-117.719761,1,rooftop,29702,"Kensington Dr",,,"Laguna Niguel",CA,"Orange County",92677,US,"CC0 1.0"
87,"Linda Vista Adventist School","5050 Perry Way, Oxnard, CA, 93036-1032, USA","5050 Perry Way",Oxnard,CA,93036-1032,USA,K-08,https://www.adventisteducation.org/schools/ANPP52,[],34.258735,-119.148358,1,range_interpolation,5050,"Perry Way",,,Oxnard,CA,"Ventura County",93036,US,"TIGER/Line® dataset from the US Census Bureau"
88,"Lodi Academy","1230 S Central Ave, Lodi, CA, 95240-5907, USA","1230 S Central Ave",Lodi,CA,95240-5907,USA,9-12,https://www.adventisteducation.org/schools/ANPI2C,[],38.11801,-121.262738,1,rooftop,1230,"S Central Ave",,,Lodi,CA,"San Joaquin County",95240,US,"San Joaquin County"
89,"Lodi SDA Elementary School","1240 S Central Ave, Lodi, CA, 95240-5907, USA","1240 S Central Ave",Lodi,CA,95240-5907,USA,K-08,https://www.adventisteducation.org/schools/ANPI69,[],38.11801,-121.262738,0.89,nearest_rooftop_match,1230,"S Central Ave",,,Lodi,CA,"San Joaquin County",95240,US,"San Joaquin County"
90,"Loma Linda Academy","10656 Anderson St, Loma Linda, CA, 92354-2104, USA","10656 Anderson St","Loma Linda",CA,92354-2104,USA,K-12,https://www.adventisteducation.org/schools/ANPM2E,"A prek-12 school/children's center, Loma Linda Academy's mission is for students to grow in God’s grace, thrive intellectually, develop true friendships, embrace healthful living.",34.06011,-117.26328,1,rooftop,10656,"Anderson St",,,"Loma Linda",CA,"San Bernardino County",92354,US,"San Bernardino"
91,"Loma Linda Academy Children's Center","25228 Shepardson Dr, Loma Linda, CA, 92354-2954, USA","25228 Shepardson Dr","Loma Linda",CA,92354-2954,USA,ECP,https://www.adventisteducation.org/schools/ANPMLO,[],34.053077,-117.254167,1,rooftop,25228,"Shepardson Dr",,,"Loma Linda",CA,"San Bernardino County",92354,US,"San Bernardino"
92,"Loma Linda University","11092 Anderson St, Loma Linda, CA, 92350-1706, USA","11092 Anderson St","Loma Linda",CA,92350-1706,USA,University,https://www.adventisteducation.org/schools/A1112L,[],34.050959,-117.263435,1,rooftop,11092,"Anderson St",,,"Loma Linda",CA,"San Bernardino County",92350,US,"San Bernardino"
93,"Los Angeles Adventist Academy","846 E El Segundo Blvd, Los Angeles, CA, 90059-3310, USA","846 E El Segundo Blvd","Los Angeles",CA,90059-3310,USA,K-08,https://www.adventisteducation.org/schools/ANPP2G,[],33.916094,-118.259332,1,rooftop,846,"E El Segundo Blvd",,,"Los Angeles",CA,"Los Angeles County",90059,US,"Indemnification Los Angeles County"
94,"Los Angeles Discoveryland Preschool","846 E El Segundo Blvd, Los Angeles, CA, 90059-3310, USA","846 E El Segundo Blvd","Los Angeles",CA,90059-3310,USA,ECP,https://www.adventisteducation.org/schools/ANPP2C,[],33.916094,-118.259332,1,rooftop,846,"E El Segundo Blvd",,,"Los Angeles",CA,"Los Angeles County",90059,US,"Indemnification Los Angeles County"
95,"Los Banos Adventist Christian School","404 Overland Rd, Los Banos, CA, 93635-9708, USA","404 Overland Rd","Los Banos",CA,93635-9708,USA,K-08,https://www.adventisteducation.org/schools/ANP845,[],37.074655,-120.84722,0.95,rooftop,404,"Overland Ave",,,"Los Banos",CA,"Merced County",93635,US,"Merced County"
96,"Mentone SDA School","1230 Olivine Ave, Mentone, CA, 92359-1222, USA","1230 Olivine Ave",Mentone,CA,92359-1222,USA,K-08,https://www.adventisteducation.org/schools/ANPMAA,[],34.067945,-117.127992,1,rooftop,1230,"Olivine Ave",,,Mentone,CA,"San Bernardino County",92359,US,"City of Redlands"
97,"Mesa Grande Academy","975 Fremont St, Calimesa, CA, 92320-1439, USA","975 Fremont St",Calimesa,CA,92320-1439,USA,K-12,https://www.adventisteducation.org/schools/ANPM2M,[],34.001385,-117.025611,1,range_interpolation,975,"Fremont St",,,Calimesa,CA,"Riverside County",92320,US,"TIGER/Line® dataset from the US Census Bureau"
98,"Mesa Grande Academy Children's Center","940 2nd St, Calimesa, CA, 92320-1202, USA","940 2nd St",Calimesa,CA,92320-1202,USA,ECP,https://www.adventisteducation.org/schools/ANPM2C,[],34.003065,-117.043344,1,range_interpolation,940,"2nd St",,,Calimesa,CA,"Riverside County",92320,US,"TIGER/Line® dataset from the US Census Bureau"
99,"Middletown Adventist School","21640 S State Highway 29, Middletown, CA, 95461, USA","21640 S State Highway 29",Middletown,CA,95461,USA,K-08,https://www.adventisteducation.org/schools/ANPI75,[],38.74169,-122.622085,1,rooftop,21640,"S State Hwy 29",,,Middletown,CA,"Lake County",95461,US,"Lake County"
100,"Milpitas Discoveryland","1991 Landess Ave, Milpitas, CA, 95035-7071, USA","1991 Landess Ave",Milpitas,CA,95035-7071,USA,ECP,https://www.adventisteducation.org/schools/ANP8MD,[],37.419424,-121.868508,1,rooftop,1991,"Landess Ave",,,Milpitas,CA,"Santa Clara County",95035,US,"Santa Clara County"
101,"Miramonte Christian School","1175 Altamead Dr, Los Altos, CA, 94024-5502, USA","1175 Altamead Dr","Los Altos",CA,94024-5502,USA,K-08,https://www.adventisteducation.org/schools/ANP851,[],37.361522,-122.081141,1,rooftop,1175,"Altamead Dr",,,"Los Altos",CA,"Santa Clara County",94024,US,"Santa Clara County"
102,"Monterey Bay Academy","783 San Andreas Rd, La Selva Beach, CA, 95076-1907, USA","783 San Andreas Rd","La Selva Beach",CA,95076-1907,USA,9-12,https://www.adventisteducation.org/schools/ANP82O,[],36.908982,-121.837998,1,rooftop,783,"San Andreas Rd",,,Watsonville,CA,"Santa Cruz County",95076,US,"Santa Cruz County"
103,"Mother Lode Adventist Junior Academy","80 N Forest Rd, Sonora, CA, 95370-4801, USA","80 N Forest Rd",Sonora,CA,95370-4801,USA,K-10,https://www.adventisteducation.org/schools/ANP857,[],37.984183,-120.392743,1,rooftop,80,"Forest Rd N",,,Sonora,CA,"Tuolumne County",95370,US,"Tuolumne County"
104,"Mountain View Academy","360 S Shoreline Blvd, Mountain View, CA, 94041-1210, USA","360 S Shoreline Blvd","Mountain View",CA,94041-1210,USA,9-12,https://www.adventisteducation.org/schools/ANP82Q,"Mountain View Academy, a Seventh-day Adventist Christian high school, provides a strong curriculum that focuses on developing the whole student spiritually, intellectually, physically, and socially.",37.393946,-122.08488,1,rooftop,360,"S Shoreline Blvd",,,"Mountain View",CA,"Santa Clara County",94041,US,"City of Mountain View"
105,"Murrieta Springs Adventist Christian Sch","32477 Starbuck Cir, Murrieta, CA, 92562-4207, USA","32477 Starbuck Cir",Murrieta,CA,92562-4207,USA,K-08,https://www.adventisteducation.org/schools/ANPMMW,[],33.582113,-117.242522,1,range_interpolation,32477,"Starbuck Cir",,,Murrieta,CA,"Riverside County",92562,US,"TIGER/Line® dataset from the US Census Bureau"
106,"Napa Christian Campus of Ed","2201 Pine St, Napa, CA, 94559-3120, USA","2201 Pine St",Napa,CA,94559-3120,USA,K-12,https://www.adventisteducation.org/schools/ANPI2K,[],38.290827,-122.299119,1,rooftop,2201,"Pine St",,,Napa,CA,"Napa County",94559,US,"Napa County"
107,"Needles SDA School","1405 Lillyhill Dr, Needles, CA, 92363-3422, USA","1405 Lillyhill Dr",Needles,CA,92363-3422,USA,K-08,https://www.adventisteducation.org/schools/ANPM66,[],34.828639,-114.612194,1,rooftop,1405,"Lillyhill Dr",,,Needles,CA,"San Bernardino County",92363,US,"San Bernardino"
108,"Newbury Park Adventist Academy","180 Academy Dr, Newbury Park, CA, 91320-1102, USA","180 Academy Dr","Newbury Park",CA,91320-1102,USA,K-08,https://www.adventisteducation.org/schools/ANPP2S,[],34.194831,-118.936425,1,rooftop,180,"Academy Dr",,,"Newbury Park",CA,"Ventura County",91320,US,"Ventura County"
109,"Oceanside Adventist Elementary","1943 California St, Oceanside, CA, 92054-5603, USA","1943 California St",Oceanside,CA,92054-5603,USA,K-08,https://www.adventisteducation.org/schools/ANPMOC,"Oceanside Adventist Elementary is dedicated to offering quality Christian education at an affordable price and preparing students to make a positive difference in their communities.",33.18966,-117.348628,1,rooftop,1943,"California St",,,Oceanside,CA,"San Diego County",92054,US,"San Diego Geographic Information Source - JPA"
110,"Orangevale SDA School","5810 Pecan Ave, Orangevale, CA, 95662-4623, USA","5810 Pecan Ave",Orangevale,CA,95662-4623,USA,K-08,https://www.adventisteducation.org/schools/ANPI93,[],38.671044,-121.219952,1,rooftop,5810,"Pecan Ave",,,Orangevale,CA,"Sacramento County",95662,US,"Sacramento County CC BY 4.0"
111,"Orangewood Academy","13732 Clinton St, Garden Grove, CA, 92843-4113, USA","13732 Clinton St","Garden Grove",CA,92843-4113,USA,K-12,https://www.adventisteducation.org/schools/ANPM2W,[],33.764301,-117.91047,1,rooftop,13732,"Clinton St",,,"Garden Grove",CA,"Orange County",92843,US,"City of Garden Grove"
112,"Pacific Union College","1 Angwin Ave, Angwin, CA, 94508-9713, USA","1 Angwin Ave",Angwin,CA,94508-9713,USA,University,https://www.adventisteducation.org/schools/ANP12Y,[],38.570518,-122.443012,1,rooftop,1,"Angwin Ave",,,Angwin,CA,"Napa County",94508,US,"Napa County"
113,"Paradise Adventist Academy","5699 Academy Dr, Paradise, CA, 95969-4702, USA","5699 Academy Dr",Paradise,CA,95969-4702,USA,9-12,https://www.adventisteducation.org/schools/ANPIPA,[],39.753622,-121.618276,1,rooftop,5699,"Academy Dr",,,Paradise,CA,"Butte County",95969,US,"Butte County"
114,"Paradise Adventist Elementary School","5699 Academy Dr, Paradise, CA, 95969-4702, USA","5699 Academy Dr",Paradise,CA,95969-4702,USA,K-08,https://www.adventisteducation.org/schools/ANPI96,[],39.753622,-121.618276,1,rooftop,5699,"Academy Dr",,,Paradise,CA,"Butte County",95969,US,"Butte County"
115,"Peninsula Adventist School","1025 Mescal St, Seaside, CA, 93955-6109, USA","1025 Mescal St",Seaside,CA,93955-6109,USA,K-08,https://www.adventisteducation.org/schools/ANP869,[],36.597496,-121.829865,1,rooftop,1025,"Mescal St",,,Seaside,CA,"Monterey County",93955,US,"Monterey County"
116,"Pine Hills Adventist Academy","13500 Richards Ln, Auburn, CA, 95603-9071, USA","13500 Richards Ln",Auburn,CA,95603-9071,USA,K-08,https://www.adventisteducation.org/schools/ANPI99,[],38.941973,-121.063555,1,rooftop,13500,"Richards Ln",,,Auburn,CA,"Placer County",95603,US,"County of Placer"
117,"Pleasant Hill Adventist Academy","796 Grayson Rd, Pleasant Hill, CA, 94523-2640, USA","796 Grayson Rd","Pleasant Hill",CA,94523-2640,USA,K-12,https://www.adventisteducation.org/schools/ANPIPN,[],37.945889,-122.089208,1,rooftop,796,"Grayson Rd",,,"Pleasant Hill",CA,"Contra Costa County",94523,US,"Contra Costa County"
118,"PUC Elementary School","135 Neilsen Ct, Angwin, CA, 94508-9667, USA","135 Neilsen Ct",Angwin,CA,94508-9667,USA,K-08,https://www.adventisteducation.org/schools/ANPI2P,"For more than 100 years, Pacific Union College Elementary School has provided quality, Christian education to children in kindergarten through eighth grade. Our diverse curriculum features a strong focus on core subjects, integrated with art, music, sports, culture, and Christian values.",38.565834,-122.440338,1,rooftop,135,"Neilsen Ct",,,Angwin,CA,"Napa County",94508,US,"Napa County"
119,"PUC Preparatory School","1 Angwin Ave, Angwin, CA, 94508-9713, USA","1 Angwin Ave",Angwin,CA,94508-9713,USA,9-12,https://www.adventisteducation.org/schools/ANPI2R,[],38.570518,-122.443012,1,rooftop,1,"Angwin Ave",,,Angwin,CA,"Napa County",94508,US,"Napa County"
120,"Redding Adventist Academy","1356 E Cypress Ave, Redding, CA, 96002-1216, USA","1356 E Cypress Ave",Redding,CA,96002-1216,USA,K-10,https://www.adventisteducation.org/schools/ANPIB3,[],40.572332,-122.346779,1,rooftop,1356,"E Cypress Ave",,,Redding,CA,"Shasta County",96002,US,"Shasta County"
121,"Redlands Adventist Academy","130 Tennessee St, Redlands, CA, 92373-4439, USA","130 Tennessee St",Redlands,CA,92373-4439,USA,K-12,https://www.adventisteducation.org/schools/ANPM3A,[],34.053473,-117.199349,1,rooftop,130,"Tennessee St",,,Redlands,CA,"San Bernardino County",92373,US,"City of Redlands"
122,"Redwood Adventist Academy","385 Mark West Springs Rd, Santa Rosa, CA, 95404-1101, USA","385 Mark West Springs Rd","Santa Rosa",CA,95404-1101,USA,K-08,https://www.adventisteducation.org/schools/ANPIB7,[],38.502149,-122.738316,1,rooftop,385,"Mark West Springs Rd",,,"Santa Rosa",CA,"Sonoma County",95404,US,"County of Sonoma Sonoma County"
123,"Ridgecrest Adventist Elementary","555 W Las Flores Ave, Ridgecrest, CA, 93555-3401, USA","555 W Las Flores Ave",Ridgecrest,CA,93555-3401,USA,K-08,https://www.adventisteducation.org/schools/ANPP48,[],35.629422,-117.681006,1,rooftop,555,"W Las Flores Ave",,,Ridgecrest,CA,"Kern County",93555,US,"Kern County"
124,"Rio Lindo Adventist Academy","3200 Rio Lindo Ave, Healdsburg, CA, 95448-9411, USA","3200 Rio Lindo Ave",Healdsburg,CA,95448-9411,USA,9-12,https://www.adventisteducation.org/schools/ANPI33,[],38.627361,-122.842441,1,rooftop,3200,"Rio Lindo Ave",,,Healdsburg,CA,"Sonoma County",95448,US,"County of Sonoma Sonoma County"
125,"Sac Adventist Academy ECEC","5601 Winding Way, Carmichael, CA, 95608-1212, USA","5601 Winding Way",Carmichael,CA,95608-1212,USA,ECP,https://www.adventisteducation.org/schools/ANPISP,[],38.648822,-121.335085,1,rooftop,5601,"Winding Way",,,Carmichael,CA,"Sacramento County",95608,US,"Sacramento County CC BY 4.0"
126,"Sacramento Adventist Academy","5601 Winding Way, Carmichael, CA, 95608-1212, USA","5601 Winding Way",Carmichael,CA,95608-1212,USA,K-12,https://www.adventisteducation.org/schools/ANPI3B,[],38.648822,-121.335085,1,rooftop,5601,"Winding Way",,,Carmichael,CA,"Sacramento County",95608,US,"Sacramento County CC BY 4.0"
127,"San Antonio Christian School","1722 E 8th St, Ontario, CA, 91764-1234, USA","1722 E 8th St",Ontario,CA,91764-1234,USA,K-08,https://www.adventisteducation.org/schools/ANPMSE,"Our school offers a Christ-centered environment providing a multi-faceted education focused on leading children to Christ, while guiding and motivating students to be successful in life.",34.091319,-117.616564,1,rooftop,1722,"E 8th St",,,Ontario,CA,"San Bernardino County",91764,US,"San Bernardino"
128,"San Diego Academy","2800 E 4th St, National City, CA, 91950-3057, USA","2800 E 4th St","National City",CA,91950-3057,USA,K-12,https://www.adventisteducation.org/schools/ANPM3D,[],32.687184,-117.07961,1,range_interpolation,2800,"E 4th St",,,"National City",CA,"San Diego County",91950,US,"TIGER/Line® dataset from the US Census Bureau"
129,"San Fernando Valley Academy","17601 Lassen St, Northridge, CA, 91325-1408, USA","17601 Lassen St",Northridge,CA,91325-1408,USA,K-12,https://www.adventisteducation.org/schools/ANPP3F,[],34.25051,-118.518076,1,range_interpolation,17601,"Lassen St",,,Northridge,CA,"Los Angeles County",91325,US,"TIGER/Line® dataset from the US Census Bureau"
130,"San Francisco Adventist School","66 Geneva Ave, San Francisco, CA, 94112-2304, USA","66 Geneva Ave","San Francisco",CA,94112-2304,USA,K-08,https://www.adventisteducation.org/schools/ANP872,[],37.721714,-122.45119,1,rooftop,66,"Geneva Ave",,,"San Francisco",CA,"San Francisco County",94112,US,"Public Domain Dedication and License (PDDL) v1.0"
131,"San Gabriel Academy","8827 E Broadway, San Gabriel, CA, 91776-2113, USA","8827 E Broadway","San Gabriel",CA,91776-2113,USA,K-12,https://www.adventisteducation.org/schools/ANPP3H,"At San Gabriel Academy, we believe that the highest education aligns with our Christ-centered philosophy and seeks to unfold God's plan for students’ lives.",34.099261,-118.076667,1,rooftop,8827,"E Broadway",,,"San Gabriel",CA,"Los Angeles County",91776,US,"Indemnification Los Angeles County"
132,"Saniku East West Language School","16110 La Salle Ave, Gardena, CA, 90247-3754, USA","16110 La Salle Ave",Gardena,CA,90247-3754,USA,K-08,https://www.adventisteducation.org/schools/ANPP27,[],33.884565,-118.305722,1,range_interpolation,16110,"La Salle Ave",,,Gardena,CA,"Los Angeles County",90247,US,"TIGER/Line® dataset from the US Census Bureau"
133,"Saniku Gakuin Japanese School","4660 Eastus Dr, San Jose, CA, 95129-3246, USA","4660 Eastus Dr","San Jose",CA,95129-3246,USA,K-08,https://www.adventisteducation.org/schools/ANP842,[],37.306344,-121.98663,1,rooftop,4660,"Eastus Dr",,,"San Jose",CA,"Santa Clara County",95129,US,"City of San Jose2"
134,"SFVA Child Development Center","17601 Lassen St, Northridge, CA, 91325-1408, USA","17601 Lassen St",Northridge,CA,91325-1408,USA,ECP,https://www.adventisteducation.org/schools/ANPP2B,[],34.25051,-118.518076,1,range_interpolation,17601,"Lassen St",,,Northridge,CA,"Los Angeles County",91325,US,"TIGER/Line® dataset from the US Census Bureau"
135,"Sierra View Junior Academy","19933 Avenue 256, Exeter, CA, 93221-9648, USA","19933 Avenue 256",Exeter,CA,93221-9648,USA,K-10,https://www.adventisteducation.org/schools/ANP875,"Sierra View Junior Academy serves as a private, co-educational, Christian School, located in Exeter, California. We offer an education from T-K through grade ten. We strive to help each student Know God, Love God and Share God.",36.253268,-119.129217,1,rooftop,19933,"256th Ave",,,Exeter,CA,"Tulare County",93221,US,Tulare
136,"South Bay Christian School","4400 Del Amo Blvd, Torrance, CA, 90503-2121, USA","4400 Del Amo Blvd",Torrance,CA,90503-2121,USA,K-08,https://www.adventisteducation.org/schools/ANPP88,[],33.848191,-118.359727,1,rooftop,4400,"Del Amo Blvd",,,Torrance,CA,"Los Angeles County",90503,US,"Indemnification Los Angeles County"
137,"Sunrise Christian Preschool","13732 Clinton St, Garden Grove, CA, 92843-4113, USA","13732 Clinton St","Garden Grove",CA,92843-4113,USA,ECP,https://www.adventisteducation.org/schools/ANPM69,[],33.764301,-117.91047,1,rooftop,13732,"Clinton St",,,"Garden Grove",CA,"Orange County",92843,US,"City of Garden Grove"
138,"Susanville Adventist Christian School","455 Cedar St, Susanville, CA, 96130-3717, USA","455 Cedar St",Susanville,CA,96130-3717,USA,K-08,https://www.adventisteducation.org/schools/ANPF60,[],40.420801,-120.650257,1,rooftop,455,"Cedar St",,,Susanville,CA,"Lassen County",96130,US,"Lassen County"
139,"Templeton Hills Adventist School","940 Templeton Hills Rd, Templeton, CA, 93465-9783, USA","940 Templeton Hills Rd",Templeton,CA,93465-9783,USA,K-08,https://www.adventisteducation.org/schools/ANP8TG,[],35.551246,-120.718573,1,rooftop,940,"Templeton Hills Rd",,,Templeton,CA,"San Luis Obispo County",93465,US,"San Luis Obispo County"
140,"Three Angels'Preschool and Infant Center","6300 Telephone Rd, Ventura, CA, 93003-5338, USA","6300 Telephone Rd",Ventura,CA,93003-5338,USA,ECP,https://www.adventisteducation.org/schools/ANPP26,[],34.265375,-119.207627,1,rooftop,6300,"Telephone Rd",,,Ventura,CA,"Ventura County",93003,US,"Ventura County"
141,"Tracy SDA  Christian Elem School","126 W 21st St, Tracy, CA, 95376-2624, USA","126 W 21st St",Tracy,CA,95376-2624,USA,K-08,https://www.adventisteducation.org/schools/ANPID7,"Nurturing students through family-centered education to be empowered by God in practicing emotional intelligence, integrity, grit and respect with each other and our community.",37.751779,-121.42742,0.9,nearest_rooftop_match,127,"W 21st St",,,Tracy,CA,"San Joaquin County",95376,US,"San Joaquin County"
142,"Ukiah Junior Academy","180 Stipp Ln, Ukiah, CA, 95482-6924, USA","180 Stipp Ln",Ukiah,CA,95482-6924,USA,K-10,https://www.adventisteducation.org/schools/ANPID9,"UJA strives for every child to grow through grace in the wisdom and knowledge of God and man, cultivating Servant-Leaders devoted to God.",39.107756,-123.199416,1,rooftop,180,"Stipp Ln",,,Ukiah,CA,"Mendocino County",95482,US,"Mendocino County"
143,"Vacaville Adventist Christian School","4740 Allendale Rd, Vacaville, CA, 95688-8608, USA","4740 Allendale Rd",Vacaville,CA,95688-8608,USA,K-08,https://www.adventisteducation.org/schools/ANPIE3,[],38.45141,-121.953321,1,rooftop,4740,"Allendale Rd",,,Vacaville,CA,"Solano County",95688,US,"Solano County"
144,"Valley Adventist Christian School","12649 Indian St Ste 100, Moreno Valley, CA, 92553-2849, USA","12649 Indian St Ste 100","Moreno Valley",CA,92553-2849,USA,K-08,https://www.adventisteducation.org/schools/ANPM87,[],33.937027,-117.235522,1,rooftop,12649,"Indian St",Ste,100,"Moreno Valley",CA,"Riverside County",92553,US,Riverside
145,"Valley View Adventist School","230 Vernon St, Arroyo Grande, CA, 93420-2629, USA","230 Vernon St","Arroyo Grande",CA,93420-2629,USA,K-10,https://www.adventisteducation.org/schools/ANP884,"Valley View Adventist Academy provides a Christ-filled, academically challenging, service-oriented curriculum allowing students a secure foundation and confidence to pursue goals and serve their community.",35.123367,-120.584809,1,range_interpolation,230,"Vernon St",,,"Arroyo Grande",CA,"San Luis Obispo County",93420,US,"TIGER/Line® dataset from the US Census Bureau"
146,"Valley View Children's Center","240A Vernon St, Arroyo Grande, CA, 93420-2629, USA","240A Vernon St","Arroyo Grande",CA,93420-2629,USA,ECP,https://www.adventisteducation.org/schools/ANP8VV,[],35.124129,-120.583139,1,rooftop,240,"Vernon St",,,"Arroyo Grande",CA,"San Luis Obispo County",93420,US,"San Luis Obispo County"
147,"VHM Christian School","427 Capitola Road Ext, Santa Cruz, CA, 95062-1638, USA","427 Capitola Road Ext","Santa Cruz",CA,95062-1638,USA,K-08,https://www.adventisteducation.org/schools/ANP887,[],36.980607,-121.991667,1,rooftop,427,"Capitola Rd",,,"Santa Cruz",CA,"Santa Cruz County",95062,US,"City of Santa Cruz"
148,"Victor Valley SDA School","17137 Crestview Dr, Victorville, CA, 92395-4640, USA","17137 Crestview Dr",Victorville,CA,92395-4640,USA,K-08,https://www.adventisteducation.org/schools/ANPM90,[],34.512275,-117.288745,1,rooftop,17137,"Crestview Dr",,,Victorville,CA,"San Bernardino County",92395,US,"San Bernardino"
149,"West Covina Hills SDA School","3528 E Temple Way, West Covina, CA, 91791-2331, USA","3528 E Temple Way","West Covina",CA,91791-2331,USA,K-08,https://www.adventisteducation.org/schools/ANPP92,[],34.071532,-117.869213,1,range_interpolation,3528,"E Temple Way",,,"West Covina",CA,"Los Angeles County",91791,US,"TIGER/Line® dataset from the US Census Bureau"
150,"Westlake SDA School","6585 Westlake Rd, Lakeport, CA, 95453-9448, USA","6585 Westlake Rd",Lakeport,CA,95453-9448,USA,K-08,https://www.adventisteducation.org/schools/ANPIE7,"Westlake Adventist School is dedicated to provide a personalized, Christ-centered education in a safe and nurture environment.",39.120404,-122.903738,1,rooftop,6585,"Westlake Rd",,,Lakeport,CA,"Lake County",95453,US,"Lake County"
151,"Yreka Adventist Christian School","346 Payne Ln, Yreka, CA, 96097-3441, USA","346 Payne Ln",Yreka,CA,96097-3441,USA,K-08,https://www.adventisteducation.org/schools/ANPIF7,"Yreka Adventist Christian School exists to provide a spiritually oriented education for K-8 children to prepare them for the joy of service in this life and for the higher joy of service in the life to come.",41.716486,-122.645301,1,rooftop,346,"Payne Ln",,,Yreka,CA,"Siskiyou County",96097,US,Siskiyou
152,"Adventist Christian School","612 23rd Ave, Greeley, CO, 80634-5919, USA","612 23rd Ave",Greeley,CO,80634-5919,USA,PK-08,https://www.adventisteducation.org/schools/ANGM60,"Adventist Christian School is a fully accredited K-8th school located in Greeley, Colorado. Our dedicated teaching staff is committed to providing superior, Christ-centered education.",40.426517,-104.715535,1,rooftop,612,"23rd Ave",,,Greeley,CO,"Weld County",80631,US,Weld
153,"Brighton Adventist Academy","820 S 5th Ave, Brighton, CO, 80601-3227, USA","820 S 5th Ave",Brighton,CO,80601-3227,USA,PK-10,https://www.adventisteducation.org/schools/ANGM27,"Brighton Adventist Academy intentionally connects students with classroom learning, character development, and essential life skills in a Christian environment that delivers academic excellence.",39.973755,-104.816008,1,rooftop,820,"S 5th Ave",,,Brighton,CO,"Adams County",80601,US,Adams
154,"Brighton Adventist Academy Preschool","820 S 5th Ave, Brighton, CO, 80601-3227, USA","820 S 5th Ave",Brighton,CO,80601-3227,USA,ECP,https://www.adventisteducation.org/schools/ANGM2C,[],39.973755,-104.816008,1,rooftop,820,"S 5th Ave",,,Brighton,CO,"Adams County",80601,US,Adams
155,"Campion Academy","300 42nd St SW, Loveland, CO, 80537-7520, USA","300 42nd St SW",Loveland,CO,80537-7520,USA,9-12,https://www.adventisteducation.org/schools/ANGM1G,"Campion Academy is a Seventh-day Adventist Christian boarding high school that empowers students to grow their faith, expand their minds, and serve their world.",40.344346,-105.077589,1,rooftop,300,"42nd St SW",,,Loveland,CO,"Larimer County",80537,US,"Larimer County"
156,"Canon City Four Mile Adventist School","3180 E Main St, Canon City, CO, 81212-9326, USA","3180 E Main St","Canon City",CO,81212-9326,USA,PK-08,https://www.adventisteducation.org/schools/ANGM30,[],38.44616,-105.187935,1,rooftop,3180,"E Main St",,,"Canon City",CO,"Fremont County",81212,US,Fremont
157,"Cortez SDA School","540 W 4th St, Cortez, CO, 81321-3445, USA","540 W 4th St",Cortez,CO,81321-3445,USA,PK-08,https://www.adventisteducation.org/schools/ANGM42,[],37.344486,-108.593381,1,rooftop,540,"W 4th St",,,Cortez,CO,"Montezuma County",81321,US,"Governor's Office of Information Technology Public Domain"
158,"Delta SDA School","762 Meeker St, Delta, CO, 81416-1925, USA","762 Meeker St",Delta,CO,81416-1925,USA,PK-08,https://www.adventisteducation.org/schools/ANGM45,[],38.736751,-108.06912,1,rooftop,762,"Meeker St",,,Delta,CO,"Delta County",81416,US,Delta
159,"Fort Collins Christian School","2040 Nancy Gray Ave, Fort Collins, CO, 80525-4394, USA","2040 Nancy Gray Ave","Fort Collins",CO,80525-4394,USA,PK-08,https://www.adventisteducation.org/schools/ANGM54,[],40.558442,-105.040509,1,rooftop,2040,"Nancy Gray Ave",,,"Fort Collins",CO,"Larimer County",80525,US,"City of Fort Collins"
160,"Fort Collins Christian School Preschool","2040 Nancy Gray Ave, Fort Collins, CO, 80525-4394, USA","2040 Nancy Gray Ave","Fort Collins",CO,80525-4394,USA,ECP,https://www.adventisteducation.org/schools/ANGM2A,[],40.558442,-105.040509,1,rooftop,2040,"Nancy Gray Ave",,,"Fort Collins",CO,"Larimer County",80525,US,"City of Fort Collins"
161,"Ft Morgan Lighthouse  Christian School","PO Box 860, Fort Morgan, CO, 80701-0860, USA","PO Box 860","Fort Morgan",CO,80701-0860,USA,PK-08,https://www.adventisteducation.org/schools/ANGMLC,[],40.262591,-103.847648,0.5,place,860,"PO Box",,,"Fort Morgan",CO,"Morgan County",80701,US,"TIGER/Line® dataset from the US Census Bureau"
162,"HMS Richards SDA School","342 42nd St SW, Loveland, CO, 80537-7520, USA","342 42nd St SW",Loveland,CO,80537-7520,USA,PK-08,https://www.adventisteducation.org/schools/ANGM66,"Know: Jesus. Grow: In Knowledge and Character.  Go: Change the World.",40.349251,-105.084114,1,range_interpolation,342,"42nd St SW",,,Loveland,CO,"Larimer County",80537,US,"TIGER/Line® dataset from the US Census Bureau"
163,"Intermountain Adventist Academy","550 25 1/2 Rd, Grand Junction, CO, 81505-6925, USA","550 25 1/2 Rd","Grand Junction",CO,81505-6925,USA,PK-08,https://www.adventisteducation.org/schools/ANGM69,"Intermountain Adventist Academy is a K-10 Christian school committed to providing quality education in a Christ-filled environment. We have been serving the Grand Valley since opening in early 1900.",39.085081,-108.579527,1,rooftop,550,"25 1/2 Rd",,,"Grand Junction",CO,"Mesa County",81505,US,"Mesa County"
164,"Mile High Academy Preschool","1733 Dad Clark Dr, Highlands Ranch, CO, 80126-2415, USA","1733 Dad Clark Dr","Highlands Ranch",CO,80126-2415,USA,ECP,https://www.adventisteducation.org/schools/ANGM28,[],39.562659,-104.967794,1,rooftop,1733,"Dad Clark Dr",,,"Highlands Ranch",CO,"Douglas County",80126,US,Douglas
165,"Mile High Adventist Academy","1733 Dad Clark Dr, Highlands Ranch, CO, 80126-2415, USA","1733 Dad Clark Dr","Highlands Ranch",CO,80126-2415,USA,PK-12,https://www.adventisteducation.org/schools/ANGM2R,"Mile High Academy is a community focused on learning, exploring, and serving.  We are intentional about shaping hearts and minds for Jesus.",39.562659,-104.967794,1,rooftop,1733,"Dad Clark Dr",,,"Highlands Ranch",CO,"Douglas County",80126,US,Douglas
166,"Springs Adventist Academy","5410 Palmer Park Blvd, Colorado Springs, CO, 80915-1498, USA","5410 Palmer Park Blvd","Colorado Springs",CO,80915-1498,USA,PK-08,https://www.adventisteducation.org/schools/ANGM39,[],38.856503,-104.727286,1,rooftop,5410,"Palmer Park Blvd",,,"Colorado Springs",CO,"El Paso County",80915,US,"El Paso"
167,"Vista Ridge Academy","3100 Ridgeview Dr, Erie, CO, 80516-7981, USA","3100 Ridgeview Dr",Erie,CO,80516-7981,USA,PK-08,https://www.adventisteducation.org/schools/ANGM24,"At Vista Ridge Academy, our commitment to excellence is demonstrated in an environment that shares God’s love in a real and personal way and teaches students about a life-long and spirit-filled relationship with Jesus Christ.",40.003204,-105.017094,1,range_interpolation,3100,"Ridgeview Dr",,,Erie,CO,"Weld County",80516,US,"TIGER/Line® dataset from the US Census Bureau"
168,"Vista Ridge Academy Preschool","3100 Ridgeview Dr, Erie, CO, 80516-7981, USA","3100 Ridgeview Dr",Erie,CO,80516-7981,USA,ECP,https://www.adventisteducation.org/schools/ANGM29,[],40.003204,-105.017094,1,range_interpolation,3100,"Ridgeview Dr",,,Erie,CO,"Weld County",80516,US,"TIGER/Line® dataset from the US Census Bureau"
169,"Fairfield County SDA School","827 Trumbull Ave, Bridgeport, CT, 06606-2438, USA","827 Trumbull Ave",Bridgeport,CT,06606-2438,USA,PK-08,https://www.adventisteducation.org/schools/AN4FFA,"At the Northeastern Adventist Academy- Fairfield County Campus, we are committed to educating children for Now and Eternity. Glorifying God in ALL that we do!",41.218119,-73.201015,1,rooftop,827,"Trumbull Ave",,,Bridgeport,CT,"Greater Bridgeport Planning Region",06606,US,"City of Bridgeport"
170,"Laurel Oaks Adventist School","14 W Shepard Ave, Hamden, CT, 06514-1120, USA","14 W Shepard Ave",Hamden,CT,06514-1120,USA,PK-08,https://www.adventisteducation.org/schools/AN4M60,[],41.400823,-72.924541,1,rooftop,14,"W Shepard Ave",,,Hamden,CT,"South Central Connecticut Planning Region",06514,US,Hamden
171,"Northeastern Adventist Academy Hartford","474 Woodland St, Hartford, CT, 06112-1839, USA","474 Woodland St",Hartford,CT,06112-1839,USA,PK-10,https://www.adventisteducation.org/schools/AN4F45,"The NAA Hartford family exists to show children Jesus, nurture their love for Him and others, teach them to think, and empower them to serve.",41.782937,-72.695602,1,rooftop,474,"Woodland St",,,Hartford,CT,"Capitol Planning Region",06112,US,"Ciy of Hartford"
172,"Northeastern Adventist EC Acad. Hartford","474 Woodland St, Hartford, CT, 06112-1839, USA","474 Woodland St",Hartford,CT,06112-1839,USA,ECP,https://www.adventisteducation.org/schools/AN4F2U,[],41.782937,-72.695602,1,rooftop,474,"Woodland St",,,Hartford,CT,"Capitol Planning Region",06112,US,"Ciy of Hartford"
173,"Dover First Christian School","655 Wyoming Ave, Dover, DE, 19904-4306, USA","655 Wyoming Ave",Dover,DE,19904-4306,USA,PK-08,https://www.adventisteducation.org/schools/ANB8DF,[],39.144954,-75.533401,1,rooftop,655,"Wyoming Ave",,,Dover,DE,"Kent County",19904,US,Kent
174,"Sharon Temple Child Care Learning Center","2001 N Washington St, Wilmington, DE, 19802-4025, USA","2001 N Washington St",Wilmington,DE,19802-4025,USA,ECP,https://www.adventisteducation.org/schools/ANB42J,[],39.754738,-75.544033,1,range_interpolation,2001,"N Washington St",,,Wilmington,DE,"New Castle County",19802,US,"TIGER/Line® dataset from the US Census Bureau"
175,"Sharon Temple Junior Academy","2001 N Washington St, Wilmington, DE, 19802-4025, USA","2001 N Washington St",Wilmington,DE,19802-4025,USA,PK-08,https://www.adventisteducation.org/schools/ANB455,[],39.754738,-75.544033,1,range_interpolation,2001,"N Washington St",,,Wilmington,DE,"New Castle County",19802,US,"TIGER/Line® dataset from the US Census Bureau"
176,"Wilmington Jr. Academy","3001 Mill Creek Rd, Wilmington, DE, 19808-1335, USA","3001 Mill Creek Rd",Wilmington,DE,19808-1335,USA,PK-08,https://www.adventisteducation.org/schools/ANB890,[],39.751233,-75.66644,1,rooftop,3001,"Mill Creek Rd",,,Wilmington,DE,"New Castle County",19808,US,"New Castle"
177,"Wilmington Jr. Academy Child Care","3001 Mill Creek Rd, Wilmington, DE, 19808-1335, USA","3001 Mill Creek Rd",Wilmington,DE,19808-1335,USA,ECP,https://www.adventisteducation.org/schools/ANB8WC,[],39.751233,-75.66644,1,rooftop,3001,"Mill Creek Rd",,,Wilmington,DE,"New Castle County",19808,US,"New Castle"
178,"AdventHealth University","671 Winyah Dr, Orlando, FL, 32803-1226, USA","671 Winyah Dr",Orlando,FL,32803-1226,USA,College,https://www.adventisteducation.org/schools/ANT1FM,[],28.576128,-81.36762,1,rooftop,671,"Winyah Dr",,,Orlando,FL,"Orange County",32803,US,"Public Domain Orange County"
179,"Adventist Christian Academy","4416 Thys Rd, New Port Richey, FL, 34653-5800, USA","4416 Thys Rd","New Port Richey",FL,34653-5800,USA,PK-08,https://www.adventisteducation.org/schools/ANTB78,[],28.223471,-82.706669,1,rooftop,4416,"Thys Rd",,,"New Port Richey",FL,"Pasco County",34653,US,Pasco
180,"Adventist Christian Academy","2700 Lisenby Ave, Panama City, FL, 32405-2708, USA","2700 Lisenby Ave","Panama City",FL,32405-2708,USA,PK-08,https://www.adventisteducation.org/schools/ANTG72,[],30.197483,-85.682894,1,rooftop,2700,"Lisenby Ave",,,"Panama City",FL,"Bay County",32405,US,"Bay County"
181,"Beryl Wisdom Adventist School","4955 Rose Ave, Orlando, FL, 32808-5950, USA","4955 Rose Ave",Orlando,FL,32808-5950,USA,PK-08,https://www.adventisteducation.org/schools/ANTBBF,[],28.610929,-81.443257,1,rooftop,4955,"Rose Ave",,,Orlando,FL,"Orange County",32808,US,"Public Domain Orange County"
182,"Bethel Jr. Academy-Florida City","32900 SW 187th Ave, Florida City, FL, 33034-1610, USA","32900 SW 187th Ave","Florida City",FL,33034-1610,USA,PK-08,https://www.adventisteducation.org/schools/ANTTBE,[],25.461224,-80.494046,1,rooftop,32900,"SW 187th Ave",,,Homestead,FL,"Miami-Dade County",33034,US,"Public Domain Miami-Dade County"
183,"Bethel Jr. Academy-Riviera Beach","2850 Avenue F, Riviera Beach, FL, 33404-3700, USA","2850 Avenue F","Riviera Beach",FL,33404-3700,USA,PK-08,https://www.adventisteducation.org/schools/ANTTPA,[],26.785812,-80.057622,1,rooftop,2850,"Ave F",,,"West Palm Beach",FL,"Palm Beach County",33404,US,"Public Domain Palm Beach County"
184,"Broward Junior Academy","201 NW 46th Ave, Plantation, FL, 33317-3148, USA","201 NW 46th Ave",Plantation,FL,33317-3148,USA,PK-10,https://www.adventisteducation.org/schools/ANTTBS,[],26.123221,-80.211034,1,rooftop,201,"NW 46th Ave",,,Plantation,FL,"Broward County",33317,US,"City of Fort Lauderdale"
185,"Children's Academy at Loch Haven","200 E Evans St, Orlando, FL, 32804-4612, USA","200 E Evans St",Orlando,FL,32804-4612,USA,ECP,https://www.adventisteducation.org/schools/ANTBLH,[],28.57684,-81.37448,1,rooftop,200,"E Evans St",,,Orlando,FL,"Orange County",32804,US,"Public Domain Orange County"
186,"Cocoa Adventist Christian School","1500 Cox Rd, Cocoa, FL, 32926-4742, USA","1500 Cox Rd",Cocoa,FL,32926-4742,USA,PK-08,https://www.adventisteducation.org/schools/ANTB18,[],28.382326,-80.786385,1,rooftop,1500,"Cox Rd",,,Cocoa,FL,"Brevard County",32926,US,"Brevard County"
187,"Daughter of Zion Junior Academy","250 NW 3rd Ave, Delray Beach, FL, 33444-2712, USA","250 NW 3rd Ave","Delray Beach",FL,33444-2712,USA,PK-08,https://www.adventisteducation.org/schools/ANTTDA,[],26.466086,-80.076514,1,rooftop,250,"NW 3rd Ave",,,"Delray Beach",FL,"Palm Beach County",33444,US,"Public Domain Palm Beach County"
188,"Daughter of Zion Junior Academy Day Care","250 NW 3rd Ave, Delray Beach, FL, 33444-2712, USA","250 NW 3rd Ave","Delray Beach",FL,33444-2712,USA,ECP,https://www.adventisteducation.org/schools/ANTTD2,[],26.466086,-80.076514,1,rooftop,250,"NW 3rd Ave",,,"Delray Beach",FL,"Palm Beach County",33444,US,"Public Domain Palm Beach County"
189,"Deltona Adventist School","1717 Catalina Blvd # 200, Deltona, FL, 32738-9541, USA","1717 Catalina Blvd # 200",Deltona,FL,32738-9541,USA,PK-08,https://www.adventisteducation.org/schools/ANTB27,[],28.94612,-81.224148,1,rooftop,1717,"Catalina Blvd",#,200,Deltona,FL,"Volusia County",32738,US,"Public Domain Volusia County"
190,"East Pasco Adventist Academy","38434 Centennial Rd, Dade City, FL, 33525-1633, USA","38434 Centennial Rd","Dade City",FL,33525-1633,USA,PK-08,https://www.adventisteducation.org/schools/ANTBEA,[],28.302298,-82.18027,1,rooftop,38434,"Centennial Rd",,,"Dade City",FL,"Pasco County",33525,US,Pasco
191,"Elim Child Development Center","4824 2nd Avenue South, St Petersburg, FL, 33711, USA","4824 2nd Avenue South","St Petersburg",FL,33711,USA,ECP,https://www.adventisteducation.org/schools/ANTTD3,[],27.768775,-82.69949,1,rooftop,4824,"2nd Ave S",,,"Saint Petersburg",FL,"Pinellas County",33711,US,"Indemnification Pinellas County"
192,"Elim Junior Academy","4824 2nd Ave S, Saint Petersburg, FL, 33711-1016, USA","4824 2nd Ave S","Saint Petersburg",FL,33711-1016,USA,PK-08,https://www.adventisteducation.org/schools/ANTT15,[],27.768775,-82.69949,1,rooftop,4824,"2nd Ave S",,,"Saint Petersburg",FL,"Pinellas County",33711,US,"Indemnification Pinellas County"
193,"Emerald Coast Christian School","119 Saint Mary Ave SW, Fort Walton Beach, FL, 32548-6646, USA","119 Saint Mary Ave SW","Fort Walton Beach",FL,32548-6646,USA,PK-08,https://www.adventisteducation.org/schools/ANTGFW,"The Emerald Coast Christian School goal is to show children Jesus, nurture their love for Him and others, teach them to think, and to empower them to serve.",30.406448,-86.618589,1,rooftop,119,"St Mary Ave SW",,,"Fort Walton Beach",FL,"Okaloosa County",32548,US,Okaloosa
194,"Ephesus Adventist Academy","4011 N Shore Dr, West Palm Beach, FL, 33407-3535, USA","4011 N Shore Dr","West Palm Beach",FL,33407-3535,USA,PK-12,https://www.adventisteducation.org/schools/ANTT25,[],26.750878,-80.07967,1,rooftop,4011,"N Shore Dr",,,"West Palm Beach",FL,"Palm Beach County",33407,US,"City of West Palm Beach"
195,"Ephesus Christian Childcare Center","1400 Palm Beach Lakes Blvd, West Palm Beach, FL, 33401-2415, USA","1400 Palm Beach Lakes Blvd","West Palm Beach",FL,33401-2415,USA,ECP,https://www.adventisteducation.org/schools/ANTT22,[],26.724445,-80.07196,1,rooftop,1400,"Palm Beach Lakes Blvd",,,"West Palm Beach",FL,"Palm Beach County",33401,US,"City of West Palm Beach"
196,"Ephesus Junior Academy","2760 Edgewood Ave W, Jacksonville, FL, 32209-2315, USA","2760 Edgewood Ave W",Jacksonville,FL,32209-2315,USA,PK-08,https://www.adventisteducation.org/schools/ANTT20,[],30.377352,-81.70955,1,rooftop,2760,"Edgewood Ave W",,,Jacksonville,FL,"Duval County",32209,US,Duval
197,"Forest City Adventist School","7563 Forest City Rd, Orlando, FL, 32810-3709, USA","7563 Forest City Rd",Orlando,FL,32810-3709,USA,PK-08,https://www.adventisteducation.org/schools/ANTB33,"Christian Education is a pledge to provide a Christ-centered curriculum which will promote the fullest development of the student’s spiritual, physical, mental, and social faculties. This school is dedicated to the philosophy of true education imparted by Christ.",28.62706,-81.411546,1,rooftop,7563,"Forest City Rd",,,Orlando,FL,"Orange County",32810,US,"Public Domain Orange County"
198,"Forest Lake Academy","500 Education Loop, Apopka, FL, 32703-6176, USA","500 Education Loop",Apopka,FL,32703-6176,USA,9-12,https://www.adventisteducation.org/schools/ANTB1F,"Forest Lake Academy is a college-preparatory Seventh-day Adventist Christian school dedicated to providing a challenging Christian education in an innovative, safe, and diverse environment.",28.670045,-81.436945,1,rooftop,500,"Education Loop",,,Apopka,FL,"Seminole County",32703,US,Indemnification
199,"Forest Lake Education Center","1275 Learning Loop, Longwood, FL, 32779-5840, USA","1275 Learning Loop",Longwood,FL,32779-5840,USA,PK-08,https://www.adventisteducation.org/schools/ANTB36,[],28.677881,-81.438398,1,rooftop,1275,"Learning Loop",,,Longwood,FL,"Seminole County",32779,US,Indemnification
200,"Gateway Christian School","18440 US Highway 441, Mount Dora, FL, 32757-6707, USA","18440 US Highway 441","Mount Dora",FL,32757-6707,USA,PK-08,https://www.adventisteducation.org/schools/ANTBMU,[],28.823177,-81.652254,1,rooftop,18440,US-441,,,"Mount Dora",FL,"Lake County",32757,US,"MapWise (and individual Florida counties)"
201,"GMAA Early Childhood &amp; Care Center","500 NW 122nd Ave, Miami, FL, 33182-1200, USA","500 NW 122nd Ave",Miami,FL,33182-1200,USA,ECP,https://www.adventisteducation.org/schools/ANTBGC,[],25.772301,-80.394132,1,rooftop,500,"NW 122nd Ave",,,Miami,FL,"Miami-Dade County",33182,US,"Public Domain Miami-Dade County"
202,"Greater Miami Adventist Academy","500 NW 122nd Ave, Miami, FL, 33182-1200, USA","500 NW 122nd Ave",Miami,FL,33182-1200,USA,PK-12,https://www.adventisteducation.org/schools/ANTB29,[],25.772301,-80.394132,1,rooftop,500,"NW 122nd Ave",,,Miami,FL,"Miami-Dade County",33182,US,"Public Domain Miami-Dade County"
203,"Gulfcoast SDA Elementary School","6001 7th Ave S, Saint Petersburg, FL, 33707-2404, USA","6001 7th Ave S","Saint Petersburg",FL,33707-2404,USA,PK-08,https://www.adventisteducation.org/schools/ANTB51,[],27.763177,-82.716658,1,rooftop,6001,"7th Ave S",,,"Saint Petersburg",FL,"Pinellas County",33707,US,"Indemnification Pinellas County"
204,"Indigo Christian Jr. Academy","401 N Williamson Blvd, Daytona Beach, FL, 32114-7101, USA","401 N Williamson Blvd","Daytona Beach",FL,32114-7101,USA,PK-08,https://www.adventisteducation.org/schools/ANTB22,[],29.193201,-81.082839,1,rooftop,401,"N Williamson Blvd",,,"Daytona Beach",FL,"Volusia County",32114,US,"Public Domain Volusia County"
205,"James E Sampson Memorial SDA School","3201 Memory Ln, Fort Pierce, FL, 34981-4401, USA","3201 Memory Ln","Fort Pierce",FL,34981-4401,USA,PK-08,https://www.adventisteducation.org/schools/ANTB60,[],27.406667,-80.373355,1,rooftop,3201,"Memory Ln",,,"Fort Pierce",FL,"St. Lucie County",34981,US,"St Lucie"
206,"Kids Ark Development Center","1226 Bunnell Rd, Altamonte Springs, FL, 32714-5407, USA","1226 Bunnell Rd","Altamonte Springs",FL,32714-5407,USA,ECP,https://www.adventisteducation.org/schools/ANTBKA,[],28.652364,-81.432243,1,rooftop,1226,"Bunnell Rd",,,"Altamonte Springs",FL,"Seminole County",32714,US,Indemnification
207,"Lauderhill Community Child Care Center","1173 NW 40th Ave, Lauderhill, FL, 33313-6629, USA","1173 NW 40th Ave",Lauderhill,FL,33313-6629,USA,ECP,https://www.adventisteducation.org/schools/ANTBLN,[],26.139719,-80.203746,1,rooftop,1173,"NW 40th Ave",,,Lauderhill,FL,"Broward County",33313,US,Broward
208,"LifePoint Academy of SDA","4298 Livingston Rd, Jacksonville, FL, 32257-7019, USA","4298 Livingston Rd",Jacksonville,FL,32257-7019,USA,PK-08,https://www.adventisteducation.org/schools/ANTB57,"Building Leaders of Integrity through Academic Excellence in a Christ-entered Environment",30.176497,-81.607081,1,rooftop,4298,"Livingston Rd",,,Jacksonville,FL,"Duval County",32257,US,Duval
209,"Little Peek at Heaven Preschool","400 NW 118th Ave, Plantation, FL, 33325-1826, USA","400 NW 118th Ave",Plantation,FL,33325-1826,USA,ECP,https://www.adventisteducation.org/schools/ANTBL4,[],26.12395,-80.30594,1,rooftop,400,"NW 118th Ave",,,Plantation,FL,"Broward County",33325,US,Statewide2
210,"Living Springs SDA Academy","23901 NW 212th Ave, High Springs, FL, 32643-8754, USA","23901 NW 212th Ave","High Springs",FL,32643-8754,USA,PK-08,https://www.adventisteducation.org/schools/ANTB81,[],29.848539,-82.597814,1,rooftop,23901,"NW 212th Ave",,,"High Springs",FL,"Alachua County",32643,US,Alachua
211,"Maranatha Child Development Center","18900 NW 32nd Ave, Miami Gardens, FL, 33056-3026, USA","18900 NW 32nd Ave","Miami Gardens",FL,33056-3026,USA,ECP,https://www.adventisteducation.org/schools/ANTBD8,[],25.947112,-80.255135,1,rooftop,18900,"NW 32nd Ave",,,"Miami Gardens",FL,"Miami-Dade County",33056,US,"Public Domain Miami-Dade County"
212,"Meadows Academy","5779 County Road 427, Sanford, FL, 32773-6334, USA","5779 County Road 427",Sanford,FL,32773-6334,USA,ECP,https://www.adventisteducation.org/schools/ANTBA4,[],28.7428,-81.287197,1,range_interpolation,5779,"County Rd 427 N",,,Sanford,FL,"Seminole County",32773,US,"TIGER/Line® dataset from the US Census Bureau"
213,"Miami Springs Adventist School","701 Curtiss Pkwy, Miami Springs, FL, 33166-7103, USA","701 Curtiss Pkwy","Miami Springs",FL,33166-7103,USA,PK-08,https://www.adventisteducation.org/schools/ANTB69,[],25.812816,-80.288694,1,rooftop,701,"Curtiss Pkwy",,,"Miami Springs",FL,"Miami-Dade County",33166,US,"Public Domain Miami-Dade County"
214,"Miami Union Adventist Academy","12600 NW 4th Ave, North Miami, FL, 33168-3628, USA","12600 NW 4th Ave","North Miami",FL,33168-3628,USA,PK-12,https://www.adventisteducation.org/schools/ANTTMJ,[],25.890881,-80.205455,1,rooftop,12600,"NW 4th Ave",,,"North Miami",FL,"Miami-Dade County",33168,US,"Public Domain Miami-Dade County"
215,"Mount Olivet SDA School","3013 NW 11th St, Fort Lauderdale, FL, 33311-5617, USA","3013 NW 11th St","Fort Lauderdale",FL,33311-5617,USA,PK-08,https://www.adventisteducation.org/schools/ANTT30,[],26.138286,-80.185217,1,rooftop,3013,"NW 11th St",,,"Fort Lauderdale",FL,"Broward County",33311,US,Broward
216,"Mount Sinai Child Development Center","2610 Orange Center Blvd, Orlando, FL, 32805-3546, USA","2610 Orange Center Blvd",Orlando,FL,32805-3546,USA,ECP,https://www.adventisteducation.org/schools/ANTTD7,[],28.530574,-81.412885,1,rooftop,2610,"Orange Center Blvd",,,Orlando,FL,"Orange County",32805,US,"Public Domain Orange County"
217,"Mt. Calvary Junior Academy","3111 E Wilder Ave, Tampa, FL, 33610-6428, USA","3111 E Wilder Ave",Tampa,FL,33610-6428,USA,PK-08,https://www.adventisteducation.org/schools/ANTT35,"Mt. Calvary Jr. Academy is committed to a Christ-centered education, developing minds to learn, hearts to love, and hands to serve.",27.992109,-82.424922,1,rooftop,3111,"E Wilder Ave",,,Tampa,FL,"Hillsborough County",33610,US,"Hillsborough County CC BY 4.0"
218,"Mt. Calvary Pre-School","3111 E Wilder Ave, Tampa, FL, 33610-6428, USA","3111 E Wilder Ave",Tampa,FL,33610-6428,USA,ECP,https://www.adventisteducation.org/schools/ANTTD8,[],27.992109,-82.424922,1,rooftop,3111,"E Wilder Ave",,,Tampa,FL,"Hillsborough County",33610,US,"Hillsborough County CC BY 4.0"
219,"Naples Adventist Christian School","2629 Horseshoe Dr S, Naples, FL, 34104-6122, USA","2629 Horseshoe Dr S",Naples,FL,34104-6122,USA,PK-08,https://www.adventisteducation.org/schools/ANTB75,"Our mission is to provide an environment where students learn in harmony with God's Word and  achieve academic excellence.",26.162113,-81.775563,1,rooftop,2629,"Horseshoe Dr S",,,Naples,FL,"Collier County",34104,US," Loveland"
220,"New Beginning Child Development Ctr","2804 Edgewood Ave W, Jacksonville, FL, 32209-2317, USA","2804 Edgewood Ave W",Jacksonville,FL,32209-2317,USA,ECP,https://www.adventisteducation.org/schools/ANTTD9,[],30.376792,-81.709851,1,rooftop,2804,"Edgewood Ave W",,,Jacksonville,FL,"Duval County",32209,US,Duval
221,"New Hope SDA Learning Center","545 E Campus Cir, Ft Lauderdale, FL, 33312-1905, USA","545 E Campus Cir","Ft Lauderdale",FL,33312-1905,USA,ECP,https://www.adventisteducation.org/schools/ANTTD0,[],26.114365,-80.193332,1,rooftop,545,"E Campus Cir",,,"Fort Lauderdale",FL,"Broward County",33312,US,"City of Fort Lauderdale"
222,"New Hope SDA School","545 E Campus Cir, Ft Lauderdale, FL, 33312-1905, USA","545 E Campus Cir","Ft Lauderdale",FL,33312-1905,USA,PK-08,https://www.adventisteducation.org/schools/ANTTNH,"New Hope SDA School and Learning Center is truly an extraordinary place of learning. Thanks to our Amazing staff each student is Challenged with rigorous standards in high academics and behavioral expectation equity and a solid foundation.",26.114365,-80.193332,1,rooftop,545,"E Campus Cir",,,"Fort Lauderdale",FL,"Broward County",33312,US,"City of Fort Lauderdale"
223,"North Tampa Christian Academy","5585 E County Line Rd, Wesley Chapel, FL, 33544-9301, USA","5585 E County Line Rd","Wesley Chapel",FL,33544-9301,USA,PK-12,https://www.adventisteducation.org/schools/ANTB2C,[],28.169117,-82.373268,1,rooftop,5585,"E County Line Rd",,,"Wesley Chapel",FL,"Hillsborough County",33544,US,"Hillsborough County CC BY 4.0"
224,"North Tampa Christian Explorers","5585 E County Line Rd, Wesley Chapel, FL, 33544-9301, USA","5585 E County Line Rd","Wesley Chapel",FL,33544-9301,USA,ECP,https://www.adventisteducation.org/schools/ANTB2N,[],28.169117,-82.373268,1,rooftop,5585,"E County Line Rd",,,"Wesley Chapel",FL,"Hillsborough County",33544,US,"Hillsborough County CC BY 4.0"
225,"Ocala Adventist Academy","415 NE 41st Ave, Ocala, FL, 34470-1462, USA","415 NE 41st Ave",Ocala,FL,34470-1462,USA,PK-08,https://www.adventisteducation.org/schools/ANTB84,[],29.190528,-82.077412,1,rooftop,415,"NE 41st Ave",,,Ocala,FL,"Marion County",34470,US," Loveland"
226,"Okeechobee Adventist Christian School","412 NW 6th St, Okeechobee, FL, 34972-2519, USA","412 NW 6th St",Okeechobee,FL,34972-2519,USA,PK-08,https://www.adventisteducation.org/schools/ANTB87,[],27.24928,-80.833951,1,rooftop,412,"NW 6th St",,,Okeechobee,FL,"Okeechobee County",34972,US," Loveland"
227,"Orlando Junior Academy","30 E Evans St, Orlando, FL, 32804-3942, USA","30 E Evans St",Orlando,FL,32804-3942,USA,PK-08,https://www.adventisteducation.org/schools/ANTB90,[],28.577384,-81.377766,1,rooftop,30,"E Evans St",,,Orlando,FL,"Orange County",32804,US,"Public Domain Orange County"
228,"Osceola Adventist Christian School","2395 Fortune Rd, Kissimmee, FL, 34744-3989, USA","2395 Fortune Rd",Kissimmee,FL,34744-3989,USA,PK-08,https://www.adventisteducation.org/schools/ANTB93,[],28.305335,-81.346927,1,rooftop,2395,"Fortune Rd",,,Kissimmee,FL,"Osceola County",34744,US,Osceola
229,"Palm Bay SDA School","3507 Carriage Gate Dr, West Melbourne, FL, 32904-9596, USA","3507 Carriage Gate Dr","West Melbourne",FL,32904-9596,USA,PK-08,https://www.adventisteducation.org/schools/ANTTPB,"The Palm Bay S.D.A. school exists to prepare students to emulate the culture of Christ in all areas of their lives",28.046208,-80.672313,1,rooftop,3507,"Carriage Gate Dr",,,Melbourne,FL,"Brevard County",32904,US,"Brevard County"
230,"Palm Beach Bilingual Daycare","2850 Avenue F, Riviera Beach, FL, 33404-3700, USA","2850 Avenue F","Riviera Beach",FL,33404-3700,USA,ECP,https://www.adventisteducation.org/schools/ANTT2E,[],26.785812,-80.057622,1,rooftop,2850,"Ave F",,,"West Palm Beach",FL,"Palm Beach County",33404,US,"Public Domain Palm Beach County"
231,"Pensacola Junior Academy","8751 University Pkwy, Pensacola, FL, 32514-4910, USA","8751 University Pkwy",Pensacola,FL,32514-4910,USA,PK-08,https://www.adventisteducation.org/schools/ANTG76,[],30.52252,-87.22256,1,rooftop,8751,"University Pkwy",,,Pensacola,FL,"Escambia County",32514,US,Escambia
232,"Perrine Child Development Center","9850 E Datura St, Miami, FL, 33157, USA","9850 E Datura St",Miami,FL,33157,USA,ECP,https://www.adventisteducation.org/schools/ANTTE1,[],25.607352,-80.349644,1,rooftop,9850,"E Datura St",,,Miami,FL,"Miami-Dade County",33157,US,"Public Domain Miami-Dade County"
233,"Perrine Seventh-day Adventist School","9750 E Datura St, Miami, FL, 33157, USA","9750 E Datura St",Miami,FL,33157,USA,PK-08,https://www.adventisteducation.org/schools/ANTTPF,[],25.607147,-80.349111,1,rooftop,9750,"E Datura St",,,Miami,FL,"Miami-Dade County",33157,US,"Public Domain Miami-Dade County"
234,"Port Charlotte Adventist School","2100 Loveland Blvd, Port Charlotte, FL, 33980-5753, USA","2100 Loveland Blvd","Port Charlotte",FL,33980-5753,USA,PK-10,https://www.adventisteducation.org/schools/ANTBA3,[],27.001642,-82.056995,1,rooftop,2100,"Loveland Blvd",,,"Punta Gorda",FL,"Charlotte County",33980,US,"Charlotte County"
235,"Sawgrass Adventist School","11701 NW 4th St, Plantation, FL, 33325-2511, USA","11701 NW 4th St",Plantation,FL,33325-2511,USA,PK-08,https://www.adventisteducation.org/schools/ANTBA9,[],26.124106,-80.305713,1,rooftop,11701,"NW 4th St",,,Plantation,FL,"Broward County",33325,US," Loveland"
236,"Shiloh SDA School","500 SW 17th Ave, Ocala, FL, 34471-1421, USA","500 SW 17th Ave",Ocala,FL,34471-1421,USA,PK-08,https://www.adventisteducation.org/schools/ANTT40,"We are a Seventh-day Adventist school.  Our staff is committed to providing quality education in a Christ-filled environment.",29.182906,-82.155114,1,rooftop,500,"SW 17th Ave",,,Ocala,FL,"Marion County",34471,US," Loveland"
237,"Tallahassee Adventist Christian Academy","616 Capital Cir NE, Tallahassee, FL, 32301, USA","616 Capital Cir NE",Tallahassee,FL,32301,USA,PK-08,https://www.adventisteducation.org/schools/ANTBB7,[],30.443322,-84.227904,1,rooftop,616,"Capital Cir NE",,,Tallahassee,FL,"Leon County",32301,US,Leon
238,"Walker Memorial Academy","1525 W Avon Blvd, Avon Park, FL, 33825-9512, USA","1525 W Avon Blvd","Avon Park",FL,33825-9512,USA,PK-10,https://www.adventisteducation.org/schools/ANTBD3,[],27.627821,-81.523756,1,rooftop,1525,"W Avon Blvd",,,"Avon Park",FL,"Highlands County",33825,US,"Highlands County, FL"
239,"West Coast Christian Academy","1112 49th Ave E, Bradenton, FL, 34203-2648, USA","1112 49th Ave E",Bradenton,FL,34203-2648,USA,PK-08,https://www.adventisteducation.org/schools/ANTBD7,[],27.454571,-82.551237,1,rooftop,1112,"49th Ave E",,,Bradenton,FL,"Manatee County",34203,US,"Manatee County CC BY 4.0"
240,"West Palm Beach Junior Academy","6300 Summit Blvd, West Palm Beach, FL, 33415-3551, USA","6300 Summit Blvd","West Palm Beach",FL,33415-3551,USA,PK-08,https://www.adventisteducation.org/schools/ANTBD9,[],26.662622,-80.141838,1,rooftop,6300,"Summit Blvd",,,"West Palm Beach",FL,"Palm Beach County",33415,US,"Public Domain Palm Beach County"
241,"William A Kirlew Jr Academy","18900 NW 32nd Ave, Miami Gardens, FL, 33056-3026, USA","18900 NW 32nd Ave","Miami Gardens",FL,33056-3026,USA,PK-08,https://www.adventisteducation.org/schools/ANTBMA,[],25.947112,-80.255135,1,rooftop,18900,"NW 32nd Ave",,,"Miami Gardens",FL,"Miami-Dade County",33056,US,"Public Domain Miami-Dade County"
242,"Winter Haven Adventist Academy","401 Avenue K SE, Winter Haven, FL, 33880-4126, USA","401 Avenue K SE","Winter Haven",FL,33880-4126,USA,PK-08,https://www.adventisteducation.org/schools/ANTBE7,[],28.01156,-81.722209,1,rooftop,401,"Ave K SE",,,"Winter Haven",FL,"Polk County",33880,US,Polk
243,"Adventist Christian School","4301 Wheeler Rd, Martinez, GA, 30907-8755, USA","4301 Wheeler Rd",Martinez,GA,30907-8755,USA,PK-08,https://www.adventisteducation.org/schools/ANTF30,[],33.48797,-82.124333,1,range_interpolation,4301,"Wheeler Rd",,,Augusta,GA,"Columbia County",30907,US,"TIGER/Line® dataset from the US Census Bureau"
244,"Atlanta Adventist Academy","2959 Duluth Highway 120 # 120, Duluth, GA, 30096-3701, USA","2959 Duluth Highway 120 # 120",Duluth,GA,30096-3701,USA,9-12,https://www.adventisteducation.org/schools/ANTF1B,[],33.988109,-84.133152,0.9,rooftop,2959,"Duluth Hwy",,,Duluth,GA,"Gwinnett County",30096,US,Gwinnett
245,"Atlanta Adventist International School","5241 Ash St, Forest Park, GA, 30297-3951, USA","5241 Ash St","Forest Park",GA,30297-3951,USA,PK-08,https://www.adventisteducation.org/schools/ANTMIS,[],33.611623,-84.364202,1,rooftop,5241,"Ash St",,,"Forest Park",GA,"Clayton County",30297,US,"Clayton County"
246,"Atlanta North SDA School","5123 Chamblee Dunwoody Rd, Atlanta, GA, 30338-4801, USA","5123 Chamblee Dunwoody Rd",Atlanta,GA,30338-4801,USA,PK-08,https://www.adventisteducation.org/schools/ANTF27,[],33.938638,-84.326016,1,rooftop,5123,"Chamblee Dunwoody Rd",,,Atlanta,GA,"Dekalb County",30338,US,Dekalb
247,"Berean Child Development Center","401 Hamilton E Holmes Dr NW, Atlanta, GA, 30318-7303, USA","401 Hamilton E Holmes Dr NW",Atlanta,GA,30318-7303,USA,ECP,https://www.adventisteducation.org/schools/ANTMBD,[],33.766338,-84.469765,1,rooftop,401,"Hamilton E Holmes Dr NW",,,Atlanta,GA,"Fulton County",30318,US,"Indemnification Fulton County"
248,"Berean Christian Junior Academy","401 Hamilton E. Holmes Dr., NW, Atlanta, GA, 30318, USA","401 Hamilton E. Holmes Dr., NW",Atlanta,GA,30318,USA,PK-08,https://www.adventisteducation.org/schools/ANTMAT,[],33.766338,-84.469765,1,rooftop,401,"Hamilton E Holmes Dr NW",,,Atlanta,GA,"Fulton County",30318,US,"Indemnification Fulton County"
249,"Bethany Christian Academy","1550 Edna Pl, Macon, GA, 31204-4911, USA","1550 Edna Pl",Macon,GA,31204-4911,USA,PK-08,https://www.adventisteducation.org/schools/ANTM32,"Welcome to B.C.A.! Bethany Christian Academy (BCA) has been in the business of preparing children for the Kingdom since 1986.",32.826445,-83.689002,1,range_interpolation,1550,"Edna Pl",,,Macon,GA,"Bibb County",31204,US,"TIGER/Line® dataset from the US Census Bureau"
250,"Carman Adventist School","1330 Cobb Pkwy N, Marietta, GA, 30062-2422, USA","1330 Cobb Pkwy N",Marietta,GA,30062-2422,USA,PK-08,https://www.adventisteducation.org/schools/ANTFB7,"Carman Adventist School provides a safe, nurturing environment where highly qualified teachers educate the whole child, in an inclusive family atmosphere.",33.984525,-84.562464,1,rooftop,1330,"Cobb Pkwy N",,,Marietta,GA,"Cobb County",30062,US,"City of Marietta"
251,"Columbus SDA School","7880 Schomburg Rd, Columbus, GA, 31909-2000, USA","7880 Schomburg Rd",Columbus,GA,31909-2000,USA,PK-08,https://www.adventisteducation.org/schools/ANTF48,[],32.56808,-84.909582,1,rooftop,7880,"Schomburg Rd",,,Columbus,GA,"Muscogee County",31909,US,"Muscogee County"
252,"Conyers Adventist Academy","3001 Old Salem Rd SE, Conyers, GA, 30013-2230, USA","3001 Old Salem Rd SE",Conyers,GA,30013-2230,USA,PK-08,https://www.adventisteducation.org/schools/ANTF2O,[],33.610493,-83.993859,1,rooftop,3001,"Old Salem Rd SE",,,Conyers,GA,"Rockdale County",30013,US,Rockdale
253,"Decatur Adventist Junior Academy","2584 Young Rd, Stone Mountain, GA, 30088-4204, USA","2584 Young Rd","Stone Mountain",GA,30088-4204,USA,PK-08,https://www.adventisteducation.org/schools/ANTMDF,"Decatur Adventist Junior Academy is a STEAMS School which encompasses Science, Technology, Engineering, Arts, and Math with emphasis on building a spiritual relationship with God.",33.730848,-84.18155,1,rooftop,2584,"Young Rd",,,"Stone Mountain",GA,"Dekalb County",30088,US,Dekalb
254,"Decatur Early Learning Center","2584 Young Rd, Stone Mountain, GA, 30088-4204, USA","2584 Young Rd","Stone Mountain",GA,30088-4204,USA,ECP,https://www.adventisteducation.org/schools/ANTMTU,[],33.730848,-84.18155,1,rooftop,2584,"Young Rd",,,"Stone Mountain",GA,"Dekalb County",30088,US,Dekalb
255,"Douglasville Adventist School","2836 Bright Star Rd, Douglasville, GA, 30134-1425, USA","2836 Bright Star Rd",Douglasville,GA,30134-1425,USA,PK-08,https://www.adventisteducation.org/schools/ANTF69,"Douglasville Adventist School, a Seventh-day Adventist Christian school, exists to show children Jesus, nurture their love for Him and others, teach them to think, and empower them to serve.",33.728586,-84.776352,1,rooftop,2836,"Bright Star Rd",,,Douglasville,GA,"Douglas County",30134,US,Douglas
256,"Duluth Adventist Christian School","2959 Duluth Highway 120 # 120, Duluth, GA, 30096-3701, USA","2959 Duluth Highway 120 # 120",Duluth,GA,30096-3701,USA,PK-08,https://www.adventisteducation.org/schools/ANTF72,"DACS is a God-centered institution, SACS accredited Seventh-day Adventist pre-kindergarten to eighth grade school located in Duluth, GA.",33.988109,-84.133152,0.9,rooftop,2959,"Duluth Hwy",,,Duluth,GA,"Gwinnett County",30096,US,Gwinnett
257,"Ebenezer SDA School","1699 Olive Rd, Augusta, GA, 30904-4984, USA","1699 Olive Rd",Augusta,GA,30904-4984,USA,PK-08,https://www.adventisteducation.org/schools/ANTM44,[],33.45319,-82.007522,1,rooftop,1699,"Olive Rd",,,Augusta,GA,"Richmond County",30904,US,"Richmond County"
258,"Emanuel Junior Academy","1534 E Broad Ave, Albany, GA, 31705-2259, USA","1534 E Broad Ave",Albany,GA,31705-2259,USA,PK-08,https://www.adventisteducation.org/schools/ANTMAL,[],31.575491,-84.114179,1,rooftop,1534,"E Broad Ave",,,Albany,GA,"Dougherty County",31705,US,Dooly
259,"Georgia-Cumberland Academy","397 Academy Dr SW, Calhoun, GA, 30701-7407, USA","397 Academy Dr SW",Calhoun,GA,30701-7407,USA,9-12,https://www.adventisteducation.org/schools/ANTF21,"Georgia-Cumberland Academy teaches students to know Jesus as a friend, to love God and those around us, and to serve our church and community.",34.463011,-85.019762,0.9,range_interpolation,397,"Academy Dr SW",,,Calhoun,GA,"Gordon County",30701,US,"TIGER/Line® dataset from the US Census Bureau"
260,"Greater Atlanta Adventist Academy","401 Hamilton E Holmes Dr NW, Atlanta, GA, 30318-7303, USA","401 Hamilton E Holmes Dr NW",Atlanta,GA,30318-7303,USA,9-12,https://www.adventisteducation.org/schools/ANTM2G,"Greater Atlanta Adventist Academy is a college preparatory high school that challenges students to GREATER EXPECTATIONS and ACHIEVEMENTS in their spiritual, academic, and social endeavors,",33.766338,-84.469765,1,rooftop,401,"Hamilton E Holmes Dr NW",,,Atlanta,GA,"Fulton County",30318,US,"Indemnification Fulton County"
261,"John L. Coble Elementary School","450 Academy Dr SW, Calhoun, GA, 30701-7406, USA","450 Academy Dr SW",Calhoun,GA,30701-7406,USA,PK-08,https://www.adventisteducation.org/schools/ANTF13,"We are learning, loving, and living for Jesus at John L. Coble Elementary School, an elementary school serving children in grades Pre-K to 8.",34.463661,-85.020581,1,range_interpolation,450,"Academy Dr SW",,,Calhoun,GA,"Gordon County",30701,US,"TIGER/Line® dataset from the US Census Bureau"
262,"Josephine Edwards Christian School","12472 Highway 515 N, Ellijay, GA, 30536-2575, USA","12472 Highway 515 N",Ellijay,GA,30536-2575,USA,PK-08,https://www.adventisteducation.org/schools/ANTF78,[],34.711224,-84.45365,1,rooftop,12472,"N Hwy 515",,,Ellijay,GA,"Gilmer County",30536,US,"Gilmer County"
263,"Learning Tree Elementary School","300 S Tibbs Rd, Dalton, GA, 30720-8040, USA","300 S Tibbs Rd",Dalton,GA,30720-8040,USA,PK-08,https://www.adventisteducation.org/schools/ANTF60,"Above all, it is our desire that each student develops a personal relationship with Jesus Christ through studying His word and His works of creation.",34.767128,-84.994012,1,rooftop,300,"S Tibbs Rd",,,Dalton,GA,"Whitfield County",30720,US,Whitfield
264,"Lithonia Adventist Academy","3533 Ragsdale Rd, Lithonia, GA, 30038-3421, USA","3533 Ragsdale Rd",Lithonia,GA,30038-3421,USA,PK-08,https://www.adventisteducation.org/schools/ANTM64,[],33.678571,-84.134432,1,rooftop,3533,"Ragsdale Rd",,,Lithonia,GA,"Dekalb County",30038,US,Dekalb
265,"Mt. Olive Learning Center","3366 Mount Olive Rd, East Point, GA, 30344-5614, USA","3366 Mount Olive Rd","East Point",GA,30344-5614,USA,ECP,https://www.adventisteducation.org/schools/ANTM23,[],33.664517,-84.477357,1,rooftop,3366,"Mt Olive Rd",,,Atlanta,GA,"Fulton County",30344,US,"Indemnification Fulton County"
266,"New Bethel Christian Academy","2423 Woodruff Farm Rd, Columbus, GA, 31907-6855, USA","2423 Woodruff Farm Rd",Columbus,GA,31907-6855,USA,PK-08,https://www.adventisteducation.org/schools/ANTM36,[],32.483876,-84.898051,1,rooftop,2423,"Woodruff Farm Rd",,,Columbus,GA,"Muscogee County",31907,US,"Muscogee County"
267,"Northeast Georgia Christian Academy","367 Church St, Cleveland, GA, 30528-1030, USA","367 Church St",Cleveland,GA,30528-1030,USA,PK-08,https://www.adventisteducation.org/schools/ANTF3C,[],34.600501,-83.757479,1,rooftop,367,"Church St",,,Cleveland,GA,"White County",30528,US,"White County"
268,"Oglethorpe SDA School","84 Buck Creek Bypass, Oglethorpe, GA, 31068, USA","84 Buck Creek Bypass",Oglethorpe,GA,31068,USA,PK-08,https://www.adventisteducation.org/schools/ANTFD9,[],32.297416,-84.055651,0.9,rooftop,84,"Buckcreek Byp",,,Oglethorpe,GA,"Macon County",31068,US,Macon
269,"Ramah Junior Academy","3400 Florance St, Savannah, GA, 31405-1883, USA","3400 Florance St",Savannah,GA,31405-1883,USA,PK-08,https://www.adventisteducation.org/schools/ANTM76,"Ramah Junior Academy provides a Christ-centered learning environment that promotes academic excellence, while preparing its students for citizenship in this world and the world to come.",32.049654,-81.11222,1,range_interpolation,3400,"Florance St",,,Savannah,GA,"Chatham County",31405,US,"TIGER/Line® dataset from the US Census Bureau"
270,"Savannah Adventist Christian Preschool","50 Godley Way, Pooler, GA, 31322-4020, USA","50 Godley Way",Pooler,GA,31322-4020,USA,ECP,https://www.adventisteducation.org/schools/ANTF2T,[],32.153104,-81.2446,0.8,rooftop,50,"Godley Way",,,"Port Wentworth",GA,"Chatham County",31407,US,"City of Savannah"
271,"Savannah Adventist Christian School","50 Godley Way, Pooler, GA, 31322-4020, USA","50 Godley Way",Pooler,GA,31322-4020,USA,PK-10,https://www.adventisteducation.org/schools/ANTFG7,"Savannah Adventist Christian School, located in Pooler, Georgia, provides preschool to high school education to children and youth throughout greater Savannah.",32.153104,-81.2446,0.8,rooftop,50,"Godley Way",,,"Port Wentworth",GA,"Chatham County",31407,US,"City of Savannah"
272,"Shoal Creek Adventist School","171 Gordon Rd, Newnan, GA, 30263-5238, USA","171 Gordon Rd",Newnan,GA,30263-5238,USA,PK-08,https://www.adventisteducation.org/schools/ANTFE7,[],33.3259,-84.771858,1,rooftop,171,"Gordon Rd",,,Newnan,GA,"Coweta County",30263,US,Coweta
273,"Valdosta Christian Academy","2285 E Park Ave, Valdosta, GA, 31602-4424, USA","2285 E Park Ave",Valdosta,GA,31602-4424,USA,PK-08,https://www.adventisteducation.org/schools/ANTFA3,"Open to students in grades K-8, Valdosta Christian Academy was founded on Christian principles to prepare young people for service to God and man.",30.872281,-83.241006,1,rooftop,2285,"E Park Ave",,,Valdosta,GA,"Lowndes County",31602,US,Lowndes
274,"Wimbish Adventist School","640 Wimbish Rd, Macon, GA, 31210-4316, USA","640 Wimbish Rd",Macon,GA,31210-4316,USA,PK-08,https://www.adventisteducation.org/schools/ANTFB3,[],32.87862,-83.686278,1,range_interpolation,640,"Wimbish Rd",,,Macon,GA,"Bibb County",31210,US,"TIGER/Line® dataset from the US Census Bureau"
275,"Adventist Malama Elementary School","86-072 Farrington Hwy, Waianae, HI, 96792-3042, USA","86-072 Farrington Hwy",Waianae,HI,96792-3042,USA,K-08,https://www.adventisteducation.org/schools/ANPBAD,"Providing quality Christian education since 1998 in the Waianae community. With low student per teacher ratio, your keiki will grow physically, mentally, socially, and best of all, spiritually!",21.437962,-158.185259,1,rooftop,86-72,"Farrington Hwy",,,Waianae,HI,"Honolulu County",96792,US,"City And County of Honolulu"
276,"Hawaiian Mission Academy","1438 Pensacola St, Honolulu, HI, 96822-5829, USA","1438 Pensacola St",Honolulu,HI,96822-5829,USA,9-12,https://www.adventisteducation.org/schools/ANPB26,"Hawaiian Mission Academy is a 9-12 boarding academy, providing an education in a Christ-centered environment.",21.305694,-157.843867,1,rooftop,1438,"Pensacola St",,,Honolulu,HI,"Honolulu County",96822,US,"City of Honolulu"
277,"Hawaiian Mission Academy Ka Lama Iki","1415 Makiki St, Honolulu, HI, 96814-1347, USA","1415 Makiki St",Honolulu,HI,96814-1347,USA,K-08,https://www.adventisteducation.org/schools/ANPB15,"Hawaiian Mission Academy Ka Lama Iki is a Seventh-day Adventist Christian school serving students in Kindergarten to 8th grade. Ka Lama Iki encourages all learners to be independent thinkers and lifelong learners.",21.301297,-157.836693,1,rooftop,1415,"Makiki St",,,Honolulu,HI,"Honolulu County",96814,US,"City of Honolulu"
